code,label,lng,lat,gend,northing,population,households,populationDensity,lgb1,lgb2,lgb3,lgb4,lgb5,lgb6,lgb7,s1,s2,s3,s4,s5,s6,s7,tnb1,tnb2,tnb3,tnb4,tnb5,tnb6,tnb7
E06000001,Hartlepool,-1.2555,54.6688,8615,530661,92334,40930,985.5,7.581100141,6.160392193,3.431763767,1.943957968,0.991579444,0.437044745,0.255210549,92.41889986,93.83960781,96.56823623,98.05604203,99.00842056,99.56295525,99.74478945,0.999059709,0.554990288,0.448922586,0.350262697,0.393483907,0.208116545,0.283567276
E06000002,Middlesbrough,-1.2228,54.5426,15460,516653,143922,60262,2671.2,7.862328234,5.948553055,3.753219674,2.164750958,1.21648754,0.623323339,0.224358974,92.13767177,94.05144695,96.24678033,97.83524904,98.78351246,99.37667666,99.77564103,1.782473425,1.296546001,1.134551699,0.670498084,0.354316759,0.315606754,0.213675214
E06000003,Redcar and Cleveland,-1.0215,54.5535,11600,518023,136536,61636,557.1,6.443976854,5.73719926,3.450465707,1.821065617,1.19110085,0.657812304,0.244480098,93.55602315,94.26280074,96.54953429,98.17893438,98.80889915,99.3421877,99.7555199,0.964404699,0.548358352,0.282246684,0.293720261,0.236121314,0.250595164,0.229200092
E06000004,Stockton-on-Tees,-1.329,54.5625,110,518785,196594,83757,959.3,6.3720762,5.964837958,3.118754164,1.844648514,1.078241637,0.570700637,0.143364282,93.6279238,94.03516204,96.88124584,98.15535149,98.92175836,99.42929936,99.85663572,0.843983603,0.635458589,0.39556962,0.380960019,0.256724199,0.178343949,0.170671764
E06000005,Darlington,-1.5527,54.5488,485,517147,107807,48918,545.9,7.063356164,6.552459146,3.910393414,1.994586123,1.355667542,0.527916965,0.349803236,92.93664384,93.44754085,96.08960659,98.00541388,98.64433246,99.47208304,99.65019676,0.856164384,0.671034973,0.514525449,0.320558484,0.283909433,0.268432355,0.327940533
E06000006,Halton,-2.72,53.3438,14705,383230,128475,55951,1624.3,6.807060468,5.581871719,3.222334768,1.912666907,1.13774641,0.458478148,0.158676187,93.19293953,94.41812828,96.77766523,98.08733309,98.86225359,99.54152185,99.84132381,0.742747291,0.512098323,0.316535832,0.63154096,0.243368216,0.221844265,0.170010201
E06000007,Warrington,-2.5628,53.3985,80,389223,210969,90538,1168,6.793493555,5.658865021,2.831150202,1.802329589,1.165817355,0.514494905,0.215492137,93.20650644,94.34113498,97.1688498,98.19767041,98.83418264,99.4855051,99.78450786,0.956830078,0.641231164,0.452984032,0.327383004,0.183304616,0.197882656,0.203843914
E06000008,Blackburn with Darwen,-2.4671,53.6922,585,421850,154735,58767,1129.4,3.929357125,3.789473684,2.435047859,1.80526625,1.387942252,0.844951415,0.36312522,96.07064287,96.21052632,97.56495214,98.19473375,98.61205775,99.15504858,99.63687478,0.702762161,0.736842105,0.920374461,0.480692197,0.4027511,0.337980566,0.234274335
E06000009,Blackpool,-3.0355,53.8175,14255,436188,141033,64789,4041.1,8.053745928,7.21038107,6.313738227,5.739980016,4.995046666,2.609480186,1.107131228,91.94625407,92.78961893,93.68626177,94.26001998,95.00495333,97.39051981,98.89286877,1.262214984,0.763313957,0.84443001,0.555123793,0.443193076,0.312304809,0.244220124
E06000010,Kingston upon Hull,-0.3364,53.7601,40,430588,267010,115472,3730.1,9.469524775,6.970670428,3.767909198,2.481919266,1.586239208,0.79101334,0.288243772,90.53047522,93.02932957,96.2320908,97.51808073,98.41376079,99.20898666,99.71175623,1.503654229,0.887983494,0.821807356,0.477904865,0.368114584,0.280833138,0.171573674
E06000011,East Riding of Yorkshire,-0.4822,53.868,560,442365,342217,152066,142.4,6.21767748,4.580383615,2.695354752,1.877293475,1.164643864,0.556235399,0.260339784,93.78232252,95.41961639,97.30464525,98.12270652,98.83535614,99.4437646,99.73966022,0.803165648,0.46892963,0.292337826,0.223753692,0.214539659,0.189120036,0.187874071
E06000012,North East Lincolnshire,-0.1339,53.544,17175,406881,156966,69826,815,7.462352766,5.033647376,3.30475909,2.055429631,1.200677802,0.580755594,0.211370262,92.53764723,94.96635262,96.69524091,97.94457037,98.7993222,99.41924441,99.78862974,1.043685702,0.67294751,0.443393438,0.489388007,0.266279351,0.244528671,0.255102041
E06000013,North Lincolnshire,-0.5921,53.5943,50,411782,169674,73173,200.4,6.599640934,5.103433792,3.324989116,1.743191381,1.004893394,0.527774816,0.197680548,93.40035907,94.89656621,96.67501088,98.25680862,98.99510661,99.47222518,99.80231945,1.113105925,1.128845952,0.843491511,0.346788736,0.262146103,0.239897644,0.16473379
E06000014,York,-1.0606,53.9586,735,451799,202821,85459,745.8,16.43110747,8.967627238,4.966042307,2.730132103,1.966837185,1.355788582,0.418841811,83.56889253,91.03237276,95.03395769,97.2698679,98.03316282,98.64421142,99.58115819,1.826437252,0.930251788,0.432582082,0.335500105,0.264596931,0.158881474,0.182105135
E06000015,Derby,-1.4683,52.9128,19225,335169,261354,105652,3349.5,8.199038733,5.830247371,3.610660342,2.073283711,1.450974645,0.89455932,0.353773585,91.80096127,94.16975263,96.38933966,97.92671629,98.54902536,99.10544068,99.64622642,1.643341815,1.422011554,0.858194982,1.118103696,0.384728125,0.317739649,0.196540881
E06000016,Leicester,-1.1276,52.6383,45,304861,368569,127387,5027.2,7.25387608,5.036274845,3.464183503,2.688771591,1.839807287,1.293550277,0.753656511,92.74612392,94.96372516,96.5358165,97.31122841,98.16019271,98.70644972,99.24634349,1.245711876,1.42687755,1.377557558,1.065596114,0.797952424,0.653535854,0.447084371
E06000017,Rutland,-0.6541,52.6607,950,307844,41050,16694,107.5,5.233342325,4.87984306,2.55113767,2.182309772,1.603773585,0.659340659,0.195865071,94.76665767,95.12015694,97.44886233,97.81769023,98.39622642,99.34065934,99.80413493,0.539519827,0.490436488,0.229832222,0,0,0,0.217627856
E06000018,Nottingham,-1.1759,52.9612,16145,340739,323627,124745,4337.6,9.211734571,7.560745988,4.603552563,3.386624359,2.456287887,1.311527638,0.651942523,90.78826543,92.43925401,95.39644744,96.61337564,97.54371211,98.68847236,99.34805748,1.079374285,1.277683135,1.190573939,0.961069075,0.543116437,0.530982849,0.299361362
E06000019,Herefordshire,-2.7457,52.1038,40,245285,187039,82827,85.8,6.642251903,4.780237408,2.913815227,2.026705847,1.324706153,0.780350518,0.319708819,93.3577481,95.21976259,97.08618477,97.97329415,98.67529385,99.21964948,99.68029118,1.07712193,0.668377714,0.454448246,0.216066721,0.210574677,0.191889472,0.172150903
E06000020,Telford and Wrekin,-2.4885,52.7302,990,314837,185523,76510,639.1,6.648308419,5.7004245,3.238773925,2.033940604,1.218890485,0.697028767,0.233317779,93.35169158,94.2995755,96.76122607,97.9660594,98.78110951,99.30297123,99.76668222,1.011576936,0.693060729,0.708053538,0.415938774,0.347592344,0.236280938,0.194431482
E06000021,Stoke-on-Trent,-2.1652,53.0176,13315,346716,258375,110399,2764.8,8.485055379,5.401805535,3.594155844,2.120118149,1.444622793,0.682300845,0.219462893,91.51494462,94.59819446,96.40584416,97.87988185,98.55537721,99.31769916,99.78053711,1.574116219,1.243155246,0.99025974,0.590744995,0.331495568,0.271112919,0.202136876
E06000022,Bath and North East Somerset,-2.4744,51.3561,30,162001,193406,79250,559.2,11.31647211,6.647879516,3.547346819,2.133333333,1.822810128,0.928463561,0.550547523,88.68352789,93.35212048,96.45265318,97.86666667,98.17718987,99.07153644,99.44945248,1.35105923,0.692968678,0.366461448,0.196721311,0.204554752,0.279657699,0.181499183
E06000023,Bristol,-2.7702,51.4526,1235,172919,472462,191638,4308.1,12.73085332,10.19400179,5.534991957,3.764644204,2.620490484,1.606745676,0.580832527,87.26914668,89.80599821,94.46500804,96.2353558,97.37950952,98.39325432,99.41916747,1.434353145,1.222493888,0.874603695,0.705744762,0.485276016,0.365169472,0.282349145
E06000024,North Somerset,-2.8,51.3892,16885,165882,216727,94648,579.9,7.737164843,5.788386504,3.24044586,2.233179691,1.591906299,0.821795806,0.34823239,92.26283516,94.2116135,96.75955414,97.76682031,98.4080937,99.17820419,99.65176761,1.052062042,0.550837732,0.27866242,0.250116125,0.217572615,0.222654036,0.198360222
E06000025,South Gloucestershire,-2.4712,51.5474,140,183263,290423,118101,584.3,7.600606638,5.835685001,3.002257966,1.863166006,1.146470467,0.584207065,0.249552884,92.39939336,94.164315,96.99774203,98.13683399,98.85352953,99.41579294,99.75044712,1.022819455,0.599009637,0.362389541,0.275209159,0.206837455,0.212790653,0.187164663
E06000026,Plymouth,-4.1202,50.3912,880,56735,264693,114558,3314.8,11.996152,8.004904537,4.786910442,2.781022128,1.750008102,0.986502662,0.443117233,88.003848,91.99509546,95.21308956,97.21897787,98.2499919,99.01349734,99.55688277,1.651434985,0.700648099,0.624379623,0.31566653,0.243056681,0.227019441,0.216742125
E06000027,Torbay,-3.5305,50.4408,23665,61223,139324,62992,2215.6,8.257229833,6.063891298,4.151190736,3.265518437,2.459101803,1.537601342,0.551862536,91.74277017,93.9361087,95.84880926,96.73448156,97.5408982,98.46239866,99.44813746,1.189117199,0.469788956,0.327725584,0.404577505,0.312597687,0.27956388,0.188134955
E06000030,Swindon,-1.7443,51.5713,150,185857,233414,95862,1014.4,6.793478261,5.325152569,3.321995104,2.319323424,1.500551673,0.759144237,0.274688463,93.20652174,94.67484743,96.6780049,97.68067658,98.49944833,99.24085576,99.72531154,1.107085346,0.771047969,0.683472677,0.416453101,0.422949614,0.265435048,0.234490151
E06000031,Peterborough,-0.2538,52.6085,1240,302621,215676,84533,628.1,5.714140335,4.812100525,3.421939099,2.108386694,1.391461272,0.64855049,0.370937828,94.28585967,95.18789947,96.5780609,97.89161331,98.60853873,99.35144951,99.62906217,1.170304788,1.321821772,1.434146016,0.956582852,0.641116968,0.453985343,0.322554633
E06000032,Luton,-0.4245,51.8943,24035,222915,225259,78940,5196,3.874319846,3.80345062,2.947587598,1.954704243,1.289215686,0.705754615,0.434180139,96.12568015,96.19654938,97.0524124,98.04529576,98.71078431,99.29424539,99.56581986,1.41144704,1.586119833,1.431499496,1.059779409,0.857843137,0.542888165,0.323325635
E06000033,Southend-on-Sea,0.729,51.5376,95,185610,180685,78344,4335.6,7.996822455,6.307471928,3.966141629,2.725833369,1.760777171,1.016624806,0.39954718,92.00317755,93.69252807,96.03385837,97.27416663,98.23922283,98.98337519,99.60045282,1.092281213,0.808650247,0.589030935,0.577688391,0.350287236,0.328908025,0.233069188
E06000034,Thurrock,0.3741,51.506,890,181237,175997,66377,1074.2,4.378582754,3.471101733,2.387720296,1.565733825,0.849480873,0.474533376,0.22498393,95.62141725,96.52889827,97.6122797,98.43426617,99.15051913,99.52546662,99.77501607,0.823271131,0.724008109,0.771542272,0.494915864,0.444173005,0.237266688,0.160702807
E06000035,Medway,0.57,51.4257,25010,172759,279771,111458,1444.2,6.684867099,4.995326332,3.048387549,2.390990471,1.45021645,0.642220841,0.310982596,93.3151329,95.00467367,96.95161245,97.60900953,98.54978355,99.35777916,99.6890174,1.118568233,0.646065871,0.616401894,0.418712099,0.309214595,0.269318417,0.218233401
E06000036,Bracknell Forest,-0.7399,51.4078,95,168395,124600,50248,1139.2,6.399042445,4.754157628,2.836355369,2.139132496,1.207997778,0.716882068,0.364440974,93.60095755,95.24584237,97.16364463,97.8608675,98.79200222,99.28311793,99.63555903,0.966761808,0.572427091,0.25578355,0.325906613,0.312413219,0.252423263,0.195236236
E06000037,West Berkshire,-1.3049,51.4497,1005,172535,161447,66658,229.3,6.860500611,4.988358556,2.579650565,1.718048227,1.215286251,0.551412996,0.235633931,93.13949939,95.01164144,97.42034943,98.28195177,98.78471375,99.448587,99.76436607,0.992063492,0.465657742,0.334018499,0.26163171,0.195226707,0.187981703,0.190027364
E06000038,Reading,-0.9848,51.4532,25540,173186,174235,67683,4312.6,9.055720157,6.712427746,3.879139204,3.093998625,2.152200528,1.308210485,0.712398024,90.94427984,93.28757225,96.1208608,96.90600138,97.84779947,98.69178951,99.28760198,1.266367199,1.083815029,0.972762646,0.859444062,0.676589986,0.536952065,0.459611628
E06000039,Slough,-0.5868,51.5082,65,179746,158498,52423,4871.5,3.245257453,3.002776863,2.293757842,1.736351531,1.429538786,0.86751766,0.445632799,96.75474255,96.99722314,97.70624216,98.26364847,98.57046121,99.13248234,99.5543672,0.880758808,1.34136584,1.215495609,0.958721704,0.790008276,0.681621019,0.267379679
E06000040,Windsor and Maidenhead,-0.699,51.4851,1135,177040,153495,60932,781.1,5.689739018,4.621277647,2.699911478,2.02637504,1.431448321,0.771112924,0.349844955,94.31026098,95.37872235,97.30008852,97.97362496,98.56855168,99.22888708,99.65015504,0.688928514,0.432472507,0.368840366,0.252722511,0.272138464,0.259509157,0.27828576
E06000041,Wokingham,-0.8841,51.4293,19950,170613,177499,69164,991.7,7.215155246,4.580354779,2.211460856,1.61441559,0.928641251,0.478017909,0.148732059,92.78484475,95.41964522,97.78853914,98.38558441,99.07135875,99.52198209,99.85126794,1.060046505,0.397140588,0.282485876,0.346528599,0.195503421,0.235642631,0.223098089
E06000042,Milton Keynes,-0.7335,52.0843,35,243629,287057,113102,930.1,6.485388964,5.23416704,3.162999763,2.005947553,1.467654121,0.74339207,0.318903515,93.51461104,94.76583296,96.83700024,97.99405245,98.53234588,99.25660793,99.68109649,1.055020304,0.96196927,0.745209368,0.567721006,0.439619898,0.298274596,0.271407247
E06000043,Brighton and Hove,-0.1321,50.8433,1065,106526,277107,121402,3345.3,17.68671514,15.34957209,12.01146866,11.1236397,9.058680532,5.565235216,2.518435196,82.31328486,84.65042791,87.98853134,88.8763603,90.94131947,94.43476478,97.4815648,2.22075347,1.909150757,0.862932858,0.603120493,0.405159025,0.384339449,0.249968754
E06000044,Portsmouth,-1.0785,50.8207,14945,102752,208002,86155,5149.8,10.59085067,7.501112671,4.667467173,3.234017693,2.177001696,1.191251139,0.486236374,89.40914933,92.49888733,95.33253283,96.76598231,97.8229983,98.80874886,99.51376363,1.319948591,0.907254613,0.852151683,0.542480387,0.34373711,0.325478453,0.156850443
E06000045,Southampton,-1.3986,50.917,25,113232,248912,102291,4990.5,11.23598647,7.705347919,4.418280403,3.234843674,2.292493456,1.430898092,0.544568644,88.76401353,92.29465208,95.5817196,96.76515633,97.70750654,98.56910191,99.45543136,1.48172999,1.033030488,0.914020139,0.709723208,0.527737904,0.378082829,0.32244196
E06000046,Isle of Wight,-1.2969,50.6757,1170,86461,140460,64775,370,8.219314891,6.397849462,3.735742173,2.74825298,1.909154022,0.974561447,0.518409426,91.78068511,93.60215054,96.26425783,97.25174702,98.09084598,99.02543855,99.48159057,1.198442025,0.652841782,0.459312562,0.264255094,0.223147873,0.124943775,0.176730486
E06000047,County Durham,-1.8391,54.6954,9480,533389,522062,234761,234.5,8.663301552,5.899524542,3.270001743,1.779316574,1.194248454,0.604359654,0.231578483,91.33669845,94.10047546,96.72999826,98.22068343,98.80575155,99.39564035,99.76842152,1.074967284,0.480702,0.331183545,0.255908475,0.253496134,0.198009573,0.209523389
E06000049,Cheshire East,-2.349,53.1806,80,364874,398771,174856,341.9,6.657223796,5.674378001,3.125746163,2.045618781,1.326374889,0.587482284,0.273583688,93.3427762,94.325622,96.87425384,97.95438122,98.67362511,99.41251772,99.72641631,1.119968377,0.850008041,0.520957694,0.268672757,0.235506905,0.194303479,0.206478255
E06000050,Cheshire West and Chester,-2.7362,53.2001,410,367257,357150,155156,388.2,8.171280167,5.654008439,3.502937321,2.020896934,1.39040641,0.74116905,0.233274237,91.82871983,94.34599156,96.49706268,97.97910307,98.60959359,99.25883095,99.76672576,0.902641414,0.554550934,0.364130699,0.214989036,0.22495019,0.210260723,0.202171006
E06000051,Shropshire,-2.7341,52.6358,12690,304422,323608,139579,101.2,6.124861752,5.306284078,3.358707472,2.074361183,1.329326343,0.809213363,0.269913283,93.87513825,94.69371592,96.64129253,97.92563882,98.67067366,99.19078664,99.73008672,0.858090843,0.426452222,0.295168557,0.227294478,0.208392744,0.164886735,0.172285074
E06000052,Cornwall,-4.8252,50.4056,85,59975,570304,250535,160.9,9.43243531,6.20806265,3.657248032,2.485902853,1.7864722,0.966149802,0.397974563,90.56756469,93.79193735,96.34275197,97.51409715,98.2135278,99.0338502,99.60202544,1.288467682,0.516151998,0.289716759,0.268517079,0.237939062,0.167782889,0.19475351
E06000053,Isles of Scilly,-6.2988,49.9207,575,11139,2058,942,125.9,10.28037383,7.179487179,3.90625,2.390438247,1.094890511,0.778210117,0.36101083,89.71962617,92.82051282,96.09375,97.60956175,98.90510949,99.22178988,99.63898917,0,0,0,0,0,0,0
E06000054,Wiltshire,-1.9451,51.2973,12625,155301,510336,215081,156.8,7.237077499,5.23364486,2.921958483,1.998213222,1.384809064,0.670540086,0.372423894,92.7629225,94.76635514,97.07804152,98.00178678,98.61519094,99.32945991,99.62757611,0.977983446,0.516243881,0.376631339,0.275461584,0.239793777,0.173573047,0.209226907
E06000055,Bedford,-0.4766,52.1893,65,255656,185228,74950,388.8,6.318347509,4.818919034,3.326530612,2.370544721,1.353720296,0.753235048,0.415416571,93.68165249,95.18108097,96.67346939,97.62945528,98.6462797,99.24676495,99.58458343,1.123936817,0.912834883,0.857142857,0.609448554,0.340864823,0.225326724,0.307715978
E06000056,Central Bedfordshire,-0.4363,52.0067,515,235392,294251,120755,411.2,6.033310673,4.559476134,2.675890876,1.795192007,1.158077591,0.622192769,0.236735831,93.96668933,95.44052387,97.32410912,98.20480799,98.84192241,99.37780723,99.76326417,0.849762067,0.473536097,0.339381282,0.260172755,0.193012932,0.184080701,0.208884556
E06000057,Northumberland,-2.0653,55.2427,14115,594161,320565,146922,63.9,6.269912589,5.525319074,3.088628913,1.849727909,1.262237034,0.636004396,0.2868915,93.73008741,94.47468093,96.91137109,98.15027209,98.73776297,99.3639956,99.7131085,0.673964545,0.429676311,0.315779977,0.231826057,0.229118934,0.187060116,0.152601862
E06000058,Bournemouth Christchurch and Poole,-1.8829,50.7467,45,94131,400192,173842,2469.2,10.55408971,6.811178866,4.103551031,3.197253588,2.518648718,1.493056418,0.84310945,89.44591029,93.18882113,95.89644897,96.80274641,97.48135128,98.50694358,99.15689055,1.319261214,0.678747657,0.527688105,0.413616247,0.278659007,0.173900082,0.219156891
E06000059,Dorset,-2.3336,50.806,530,100771,379578,169261,152.4,6.713030747,5.123931883,2.854065697,2.350837404,1.481589607,0.8715088,0.391536324,93.28696925,94.87606812,97.1459343,97.6491626,98.51841039,99.1284912,99.60846368,0.969985359,0.348463729,0.269251481,0.218073971,0.28281575,0.131477621,0.172438277
E06000060,Buckinghamshire,-0.8121,51.7852,14225,210241,553081,220328,353.4,5.962350104,4.668169296,2.631578947,1.744170446,1.050226956,0.497710532,0.265751301,94.0376499,95.3318307,97.36842105,98.25582955,98.94977304,99.50228947,99.7342487,0.893235971,0.642791552,0.443123017,0.308584002,0.27442371,0.209038423,0.243605359
E06000061,North Northamptonshire,-0.6263,52.4251,40,281667,359525,148918,364.4,6.422983367,4.823465261,2.946436555,1.917923832,1.232571763,0.611286655,0.290663876,93.57701663,95.17653474,97.05356344,98.08207617,98.76742824,99.38871334,99.70933612,1.035434883,0.704321352,0.55888402,0.432535078,0.339777387,0.206715294,0.232531101
E06000062,West Northamptonshire,-1.0364,52.223,600,258722,425726,172641,309.1,7.027664539,5.134036762,3.067022157,2.254594029,1.40982606,0.64052743,0.295502182,92.97233546,94.86596324,96.93297784,97.74540597,98.59017394,99.35947257,99.70449782,1.217855037,0.913463331,0.689528363,0.523484602,0.376360492,0.201002332,0.206164313
E07000008,Cambridge,0.1315,52.1988,11330,257755,145676,52472,3579.2,17.70779556,10.75179448,5.595157275,3.553299492,3.038944836,1.618818768,1.640039587,82.29220444,89.24820552,94.40484272,96.44670051,96.96105516,98.38118123,98.35996041,1.787061673,1.511144692,1.018329939,0.730130033,0.445593084,0.316175541,0.282765446
E07000009,East Cambridgeshire,0.2952,52.3429,30,274112,87762,37203,134.8,7.162576687,5.459135374,3.334831461,2.009505545,1.403606618,0.847079804,0.302233903,92.83742331,94.54086463,96.66516854,97.99049446,98.59639338,99.1529202,99.6977661,0.766871166,0.631113916,0.404494382,0.291836905,0.232385202,0.167186803,0.197109067
E07000010,Fenland,0.0611,52.5627,575,298084,102457,44083,187.5,6.148130393,5.37525355,3.402646503,1.936138653,1.419570333,0.726832223,0.374181478,93.85186961,94.62474645,96.5973535,98.06386135,98.58042967,99.27316778,99.62581852,1.258389262,0.929682218,0.810153929,0.546490749,0.455477112,0.346110582,0.207878599
E07000011,Huntingdonshire,-0.2206,52.3739,9320,276573,180832,76880,199.6,7.267258865,5.59563448,3.254358516,2.109687084,1.265712291,0.613827267,0.301560246,92.73274113,94.40436552,96.74564148,97.89031292,98.73428771,99.38617273,99.69843975,0.944254039,0.462449131,0.469378632,0.395306258,0.283694134,0.161533491,0.131113151
E07000012,South Cambridgeshire,0.0815,52.1731,30,254795,162116,66996,179.8,8.380559849,5.791034362,3.178949322,2.18348459,1.362924282,0.668137001,0.335619437,91.61944015,94.20896564,96.82105068,97.81651541,98.63707572,99.331863,99.66438056,1.116263095,0.697714983,0.556896232,0.269565999,0.182767624,0.19460301,0.218882241
E07000026,Allerdale,-3.2469,54.7114,750,535836,96156,43973,77.4,5.772063747,4.417916539,2.689161554,1.69769989,1.345420534,0.701667492,0.216517167,94.22793625,95.58208346,97.31083845,98.30230011,98.65457947,99.29833251,99.78348283,0.73657426,0.459136823,0.204498978,0.273822563,0.215842866,0.206372792,0.206206825
E07000027,Barrow-in-Furness,-3.213,54.1257,11675,470657,67404,31259,865.3,6.907509617,4.955008998,3.05364897,1.866324507,1.353921898,0.558507015,0.23482053,93.09249038,95.044991,96.94635103,98.13367549,98.6460781,99.44149298,99.76517947,0.836260244,0.359928014,0.350189102,0.291613204,0.167841558,0.340553058,0.3354579
E07000028,Carlisle,-2.8083,54.971,85,564335,110025,50663,106,7.771416455,5.764507215,3.512313282,1.89033189,1.114522157,0.879522071,0.495407163,92.22858355,94.23549278,96.48768672,98.10966811,98.88547784,99.12047793,99.50459284,1.272264631,0.690819773,0.363342753,0.252525253,0.266951415,0.290408231,0.206419651
E07000029,Copeland,-3.374,54.4142,475,502927,67063,30789,91.7,6.111007288,5.245856732,2.536231884,1.982937514,1.172146618,0.506110357,0.179621163,93.88899271,94.75414327,97.46376812,98.01706249,98.82785338,99.49388964,99.82037884,0.934404784,0.410902616,0.217391304,0.461148259,0.198668918,0.308603876,0.244937949
E07000030,Eden,-2.6219,54.6129,15740,524354,54734,24613,25.5,5.580468361,4.726122207,2.959028832,2.071126857,1.092007435,0.6525059,0.39209001,94.41953164,95.27387779,97.04097117,97.92887314,98.90799257,99.3474941,99.60790999,0.996512207,0.494364248,0.474203338,0.204387519,0.232342007,0.138831043,0
E07000031,South Lakeland,-2.8508,54.2925,80,488871,104449,47657,68,6.912503304,5.106294289,3.270935961,2.331243084,1.457391968,0.690870638,0.386100386,93.0874967,94.89370571,96.72906404,97.66875692,98.54260803,99.30912936,99.61389961,0.925191647,0.468945394,0.39408867,0.221320546,0.127283141,0.17624251,0.196989993
E07000032,Amber Valley,-1.467,53.0295,660,348157,126205,56277,475.6,6.831861958,5.241015402,3.088213922,2.19773914,1.4589169,0.638135534,0.320998663,93.16813804,94.7589846,96.91178608,97.80226086,98.5410831,99.36186447,99.67900134,0.953049759,0.53479749,0.254323499,0.172146669,0.204248366,0.104043837,0.133749443
E07000033,Bolsover,-1.2772,53.2152,15905,368917,80277,35262,500.7,6.136431338,5.251706063,3.022442765,2.202803568,1.467130631,0.721624266,0.260177533,93.86356866,94.74829394,96.97755723,97.79719643,98.53286937,99.27837573,99.73982247,0.670241287,0.445059836,0.394722003,0.182049882,0.188093671,0.244618395,0.229568411
E07000034,Chesterfield,-1.4011,53.2554,50,373318,103569,48058,1568.4,7.532314924,6.325034244,3.424775707,2.435793657,1.543187826,0.724702514,0.28486907,92.46768508,93.67496576,96.57522429,97.56420634,98.45681217,99.27529749,99.71513093,1.057579318,0.402868423,0.345065562,0.367944661,0.214331642,0.178938892,0.219130054
E07000035,Derbyshire Dales,-1.6943,53.1287,575,359062,71536,32283,90.3,6.126914661,4.263030721,2.702702703,2.172601086,1.727039235,0.861457383,0.415726333,93.87308534,95.73696928,97.2972973,97.82739891,98.27296077,99.13854262,99.58427367,0.696240302,0.258888505,0,0.150875075,0.088566115,0.152021891,0.178168429
E07000036,Erewash,-1.3472,52.9352,16625,337734,112902,50334,1029.9,7.508675991,5.923193751,3.491989423,2.174477476,1.226074518,0.699300699,0.287976962,92.49132401,94.07680625,96.50801058,97.82552252,98.77392548,99.3006993,99.71202304,1.051635293,0.470094742,0.388862965,0.292093989,0.238403379,0.12950013,0.20569783
E07000037,High Peak,-1.8738,53.3733,105,386271,90930,40772,168.7,7.530672684,6.128596655,3.946314103,2.227525855,1.604397237,0.928523068,0.380517504,92.46932732,93.87140334,96.0536859,97.77247414,98.39560276,99.07147693,99.6194825,0.987166831,0.623247117,0.300480769,0.238663484,0.185694125,0.145081729,0.190258752
E07000038,North East Derbyshire,-1.4477,53.2261,685,370027,102000,45987,370.1,6.012939236,4.678147159,2.662556054,1.910354568,1.268424036,0.529992773,0.167410714,93.98706076,95.32185284,97.33744395,98.08964543,98.73157596,99.47000723,99.83258929,0.69770392,0.368358044,0.186846039,0.148665725,0.177154195,0.120452903,0.093005952
E07000039,South Derbyshire,-1.5598,52.8308,16595,326002,107203,45240,317.1,5.411791179,4.746977161,3.145235893,1.838651655,1.108946501,0.675997334,0.258131131,94.58820882,95.25302284,96.85476411,98.16134834,98.8910535,99.32400267,99.74186887,0.562556256,0.26123302,0.269811903,0.166544534,0.224786453,0.190421784,0.193598348
E07000040,East Devon,-3.2236,50.7641,40,96775,150821,66788,185.2,6.919705306,5.187769037,3.067569435,2.115500852,1.563585823,0.927905169,0.508794883,93.08029469,94.81223096,96.93243057,97.88449915,98.43641418,99.07209483,99.49120512,0.932574839,0.408193558,0.207268205,0.219792296,0.124094113,0.121453556,0.145369967
E07000041,Exeter,-3.5102,50.7218,695,92447,130712,52554,2780,11.94866006,7.932301391,4.950030183,3.29218107,2.601178782,1.376102335,0.452927855,88.05133994,92.06769861,95.04996982,96.70781893,97.39882122,98.62389766,99.54707214,1.003386429,0.933566223,0.637199007,0.496665248,0.353634578,0.19381723,0.269599914
E07000042,Mid Devon,-3.5562,50.8758,13640,109637,82848,35633,90.8,6.875097216,5.257960997,3.249179214,2.270158252,1.540114613,0.830343414,0.289995167,93.12490278,94.742039,96.75082079,97.72984175,98.45988539,99.16965659,99.71000483,0.777725929,0.617131572,0.396241368,0.329691032,0.268624642,0.205023065,0.241662639
E07000043,North Devon,-3.9146,51.0697,30,131782,98608,43197,90.8,6.817876795,4.951000408,2.99938788,2.245545521,1.647470477,0.769482646,0.35984499,93.1821232,95.04899959,97.00061212,97.75445448,98.35252952,99.23051735,99.64015501,1.207891558,0.510412413,0.204039992,0.284761207,0.218690771,0.20464964,0.230669865
E07000044,South Hams,-3.8234,50.3735,685,54205,88628,39335,100,6.968641115,5.790527018,3.625772706,2.626097981,1.824628795,0.917358009,0.456230396,93.03135889,94.20947298,96.37422729,97.37390202,98.1753712,99.08264199,99.5437696,1.078480173,0.466977985,0.297194484,0.271665308,0.258550639,0.199425654,0.142571999
E07000045,Teignbridge,-3.6569,50.6063,8930,79821,134805,59838,200.1,7.296137339,5.726735138,3.54767184,2.425506555,1.571332262,1.040085456,0.399767877,92.70386266,94.27326486,96.45232816,97.57449344,98.42866774,98.95991454,99.60023212,1.256149901,0.427948957,0.29563932,0.178784267,0.207436602,0.168662506,0.161196724
E07000046,Torridge,-4.2485,50.8859,15,112003,68122,30457,69.2,7.295780503,4.536553525,3.494094488,2.654240887,1.679434296,0.898574675,0.298120544,92.7042195,95.46344648,96.50590551,97.34575911,98.3205657,99.10142533,99.70187946,1.039284972,0.489556136,0.32808399,0.235932523,0.24553133,0.206568891,0.194426442
E07000047,West Devon,-4.046,50.6559,660,86000,57093,24818,49.2,6.100928948,5.306380291,3.322574521,2.55839822,1.810265811,1.24137931,0.441371193,93.89907105,94.69361971,96.67742548,97.44160178,98.18973419,98.75862069,99.55862881,1.00426814,0.31585597,0.284792102,0.139043382,0.114573786,0,0
E07000061,Eastbourne,0.2655,50.7753,18110,99749,101685,45610,2302.6,8.5941149,6.776707932,4.693010218,4.317718941,2.981246995,2.283305524,1.081275906,91.4058851,93.22329207,95.30698978,95.68228106,97.01875301,97.71669448,98.91872409,1.167678655,0.687757909,0.542544534,0.488798371,0.360634717,0.219548608,0.225265814
E07000062,Hastings,0.5703,50.8695,170,110924,91006,40453,3053.9,9.223234934,7.960907107,5.543237251,5.016302985,4.058441558,2.387239886,0.946996466,90.77676507,92.03909289,94.45676275,94.98369702,95.94155844,97.61276011,99.05300353,1.224323221,0.901413796,0.578424757,0.543432823,0.3417635,0.211260167,0.212014134
E07000063,Lewes,0.0053,50.8815,905,111026,99912,43688,342,8.92088267,7.02799955,5.439491672,4.990714949,3.795379538,2.067142056,0.889784269,91.07911733,92.97200045,94.56050833,95.00928505,96.20462046,97.93285794,99.11021573,1.143702906,0.730911953,0.336959661,0.270813989,0.300030003,0.240365355,0.293796693
E07000064,Rother,0.5386,50.9518,25040,119997,93111,42102,182.8,6.813627255,5.488211003,3.626943005,3.279142804,2.165471924,1.296388632,0.521376434,93.18637275,94.511789,96.37305699,96.7208572,97.83452808,98.70361137,99.47862357,1.079081239,0.53283602,0.259067358,0.23092555,0.224014337,0.142460289,0.186205869
E07000065,Wealden,0.1979,50.9676,160,120966,160146,68266,192.2,5.947394874,5.043633615,3.217123814,2.518192264,1.514014566,0.848330309,0.400237979,94.05260513,94.95636638,96.78287619,97.48180774,98.48598543,99.15166969,99.59976202,0.83766125,0.309214595,0.256344527,0.167560322,0.220701832,0.122591085,0.189301747
E07000066,Basildon,0.4657,51.5903,1235,190821,187576,76362,1705.1,5.089198436,4.053999434,2.392004349,1.568128841,0.849593875,0.432357917,0.209111277,94.91080156,95.94600057,97.60799565,98.43187116,99.15040612,99.56764208,99.79088872,0.73313783,0.525443596,0.39727345,0.317863954,0.326766875,0.219311987,0.149365198
E07000067,Braintree,0.5901,51.942,26570,230213,155267,64986,253.8,5.833203186,4.609517493,2.78992527,1.737406166,1.16031011,0.531947795,0.234888819,94.16679681,95.39048251,97.21007473,98.26259383,98.83968989,99.46805221,99.76511118,0.819928159,0.414524954,0.304456131,0.283272744,0.286175139,0.185563184,0.156592546
E07000068,Brentwood,0.3107,51.6385,120,195829,77045,32342,503.2,4.635332253,3.802485004,1.933992012,1.395625062,1.047010784,0.400331309,0.185687759,95.36466775,96.197515,98.06600799,98.60437494,98.95298922,99.59966869,99.81431224,0.648298217,0.214224507,0.315324785,0.247451252,0.261752696,0.207067918,0
E07000069,Castle Point,0.5937,51.5363,1165,185122,89591,37389,2005.4,4.347826087,3.650656903,1.944119834,1.41134435,0.862820289,0.364996806,0.262944984,95.65217391,96.3493431,98.05588017,98.58865565,99.13717971,99.63500319,99.73705502,0.523834468,0.37691148,0.371826198,0.223313979,0.217883911,0.136873802,0.202265372
E07000070,Chelmsford,0.481,51.7254,29175,205876,181527,75401,535.9,6.161602933,4.894949585,2.465304715,1.684456304,1.056657901,0.598106962,0.24592888,93.83839707,95.10505042,97.53469528,98.3155437,98.9433421,99.40189304,99.75407112,0.753012048,0.377559632,0.323247996,0.271014009,0.262969161,0.20324023,0.13293453
E07000071,Colchester,0.8614,51.8726,95,223202,192716,79710,587.2,9.231746652,5.991009399,3.531807039,2.559178391,1.59579597,0.751305981,0.401273004,90.76825335,94.0089906,96.46819296,97.44082161,98.40420403,99.24869402,99.598727,1.124034796,0.776460973,0.540158724,0.41748424,0.313373831,0.146739449,0.276740003
E07000072,Epping Forest,0.1482,51.7088,1125,203300,134981,54557,398.2,4.106685507,3.756021351,2.566361287,1.879910213,1.190053286,0.702685821,0.256138491,95.89331449,96.24397865,97.43363871,98.12008979,98.80994671,99.29731418,99.74386151,0.529894904,0.520765525,0.41108762,0.336700337,0.236826525,0.195190506,0.176647235
E07000073,Harlow,0.1089,51.769,27510,209915,93334,37857,3056.1,5.552855407,4.230681904,2.911654279,1.759956455,1.372568382,0.781024009,0.194621373,94.44714459,95.7693181,97.08834572,98.24004355,98.62743162,99.21897599,99.80537863,0.972053463,0.718988875,0.72791357,0.589676132,0.44435667,0.289268152,0
E07000074,Maldon,0.7838,51.7092,50,204831,66208,27900,185,5.788497217,4.240447344,2.518040841,1.558355438,1.068734283,0.518697226,0.229324925,94.21150278,95.75955266,97.48195916,98.44164456,98.93126572,99.48130277,99.77067508,0.742115028,0.388319354,0.230308614,0.165782493,0.209555742,0.241254524,0.214992117
E07000075,Rochford,0.8101,51.5912,1125,191782,85667,35557,512.7,4.771178189,3.149246919,1.752360965,1.503109883,1.097136741,0.42386023,0.157533476,95.22882181,96.85075308,98.24763903,98.49689012,98.90286326,99.57613977,99.84246652,0.486854917,0.285257873,0.157397692,0.129578438,0.222995273,0.206761088,0.168785867
E07000076,Tendring,1.1155,51.8713,20475,223776,148287,67451,440.9,5.843293493,4.491470525,3.400167721,2.324226714,1.383709519,0.764614789,0.383867066,94.15670651,95.50852948,96.59983228,97.67577329,98.61629048,99.23538521,99.61613293,0.752545374,0.395882819,0.266829305,0.203879536,0.269872424,0.193573364,0.65730662
E07000077,Uttlesford,0.2795,51.9349,40,228707,91340,36958,142.5,5.725512209,4.15190434,2.506466863,1.478801227,1.016751396,0.607507051,0.305966344,94.27448779,95.84809566,97.49353314,98.52119877,98.9832486,99.39249295,99.69403366,0.701655908,0.332152347,0.178396218,0.157319279,0.208350696,0.162725103,0
E07000078,Cheltenham,-2.0729,51.8963,930,221973,118833,52899,2549.3,11.46110372,7.328958482,3.687038281,2.646306916,1.759360233,0.939672994,0.545715653,88.53889628,92.67104152,96.31296172,97.35369308,98.24063977,99.06032701,99.45428435,1.662234043,0.747189916,0.470114171,0.345470877,0.327153762,0.187934599,0.191479177
E07000079,Cotswold,-1.8925,51.8164,17425,213072,90834,40597,78,6.190191388,4.913401302,2.762838764,2.192729371,1.497529456,0.753311975,0.386884612,93.80980861,95.0865987,97.23716124,97.80727063,98.50247054,99.24668802,99.61311539,0.897129187,0.368505098,0.263629653,0.206083588,0.228050171,0.129881375,0.290163459
E07000080,Forest of Dean,-2.4898,51.8287,35,214546,87006,37217,165.4,6.625701309,5.11108553,3.211173451,1.789264414,1.164021164,0.719948966,0.267648043,93.37429869,94.88891447,96.78882655,98.21073559,98.83597884,99.28005103,99.73235196,0.86828747,0.518015425,0.417810672,0.271100669,0.162800163,0.227831951,0.167280027
E07000081,Gloucester,-2.2404,51.8499,1255,216834,132409,55407,3266.6,7.30994152,5.992316073,3.559064683,2.304878049,1.434201176,0.817714076,0.224143452,92.69005848,94.00768393,96.44093532,97.69512195,98.56579882,99.18228592,99.77585655,1.162093267,0.831469694,0.637716368,0.579268293,0.387621939,0.137816979,0.266837443
E07000082,Stroud,-2.3001,51.7296,16490,203473,121103,52378,263,7.968923418,5.61845218,3.721856333,2.32921119,1.654719235,0.971769045,0.355751313,92.03107658,94.38154782,96.27814367,97.67078881,98.34528076,99.02823095,99.64424869,1.331853496,0.760392024,0.306325624,0.270140473,0.238948626,0.177330118,0.169405387
E07000083,Tewkesbury,-2.088,51.9456,115,227458,94888,40931,229,6.499575191,4.621616645,2.719141324,1.800820839,1.187139324,0.563708815,0.297062383,93.50042481,95.37838335,97.28085868,98.19917916,98.81286068,99.43629118,99.70293762,0.920419145,0.368256306,0.268336315,0.251277326,0.164880462,0.19438235,0.165034657
E07000084,Basingstoke and Deane,-1.2012,51.2735,1420,153006,185148,76645,292.1,7.44751528,5.541017653,3.185154976,2.11289939,1.169431602,0.512101445,0.343771019,92.55248472,94.45898235,96.81484502,97.88710061,98.8305684,99.48789856,99.65622898,1.229072548,0.581516096,0.469004894,0.277491477,0.249297435,0.213375602,0.261564905
E07000085,East Hampshire,-0.9548,51.0744,18980,131076,125741,52718,244.4,7.424428105,4.96512105,2.736137389,1.859975434,1.119424296,0.560482441,0.264365135,92.5755719,95.03487895,97.26386261,98.14002457,98.8805757,99.43951756,99.73563487,1.174428105,0.492408699,0.327463251,0.233959174,0.171340453,0.106420717,0.194386129
E07000086,Eastleigh,-1.3279,50.9331,140,115065,136446,56924,1712.1,6.712517194,5.609467456,2.771098134,1.813397403,1.172112231,0.619756632,0.258977901,93.28748281,94.39053254,97.22890187,98.1866026,98.82788777,99.38024337,99.7410221,0.779458964,0.443786982,0.286270468,0.200217379,0.242924815,0.188950193,0.172651934
E07000087,Fareham,-1.2262,50.8524,1585,106165,114503,48639,1542.1,6.859892569,5.527465935,3.07777514,1.963543761,1.347962382,0.725678434,0.218903917,93.14010743,94.47253406,96.92222486,98.03645624,98.65203762,99.27432157,99.78109608,0.839301701,0.428485731,0.237360551,0.234553009,0.156739812,0.188978759,0.156359941
E07000088,Gosport,-1.1588,50.8055,19005,100995,81955,35922,3229.8,8.197649724,6.989473684,3.965517241,2.164838365,1.769748364,0.816511681,0.25496511,91.80235028,93.01052632,96.03448276,97.83516163,98.23025164,99.18348832,99.74503489,0.991080278,0.578947368,0.377155172,0.291233861,0.276523182,0.2268088,0
E07000089,Hart,-0.8979,51.2847,175,154529,99409,39964,461.8,6.079434698,4.552876765,2.477947073,1.622988829,1.063225388,0.382815823,0.180241072,93.9205653,95.44712324,97.52205293,98.37701117,98.93677461,99.61718418,99.81975893,0.852826511,0.288156757,0.320769848,0.175648142,0.162324487,0.106337729,0.225301341
E07000090,Havant,-0.9898,50.8387,1630,104842,124207,53589,2228.4,6.588188743,5.394990366,3.181146457,2.088013744,1.23290084,0.666712966,0.318447752,93.41181126,94.60500963,96.81885354,97.91198626,98.76709916,99.33328703,99.68155225,0.890295776,0.518749074,0.311114568,0.330381922,0.234838255,0.208347802,0.22217285
E07000091,New Forest,-1.6255,50.8586,18810,106633,175778,77566,233.7,6.433499118,4.67790409,2.650616698,1.816585005,1.213996667,0.684502692,0.270096463,93.56650088,95.32209591,97.3493833,98.18341499,98.78600333,99.31549731,99.72990354,0.842291032,0.392003136,0.237191651,0.138670611,0.158692375,0.125213907,0.150053591
E07000092,Rushmoor,-0.7676,51.2742,90,153516,99758,39303,2554.9,7.05099278,5.207185007,3.805926787,2.494080505,1.557489693,1.496421601,1.136548141,92.94900722,94.79281499,96.19407321,97.50591949,98.44251031,98.5035784,98.86345186,1.240974729,0.810582971,0.944218478,0.631412786,0.549702245,0.780741705,0.730638091
E07000093,Test Valley,-1.511,51.1285,1295,136669,130488,54708,207.9,6.969635215,5.209251848,2.924088616,1.880254488,1.161059839,0.5612584,0.232577457,93.03036479,94.79074815,97.07591138,98.11974551,98.83894016,99.4387416,99.76742254,0.866109639,0.474801601,0.287301283,0.227221086,0.178624591,0.184624474,0.207658443
E07000094,Winchester,-1.2214,51.0282,16185,125708,127448,51715,192.8,11.74470497,6.246988919,2.922077922,1.824773414,1.247374785,0.787902905,0.325189694,88.25529503,93.75301108,97.07792208,98.17522659,98.75262521,99.2120971,99.67481031,1.52298647,0.562068412,0.241779497,0.241691843,0.190924712,0.238758456,0.166763946
E07000095,Broxbourne,-0.0483,51.7243,65,204646,99005,39849,1924.9,3.999091116,3.792989962,1.978667491,1.305095342,1.010452962,0.378279439,0.197212727,96.00090888,96.20701004,98.02133251,98.69490466,98.98954704,99.62172056,99.80278727,0.73846853,0.575942077,0.734271139,0.429821819,0.43554007,0.305064063,0.131475151
E07000096,Dacorum,-0.541,51.7783,1120,209858,155082,63412,729.8,6.577974871,4.568364611,2.738740467,1.86165001,1.156660211,0.55385076,0.338659257,93.42202513,95.43163539,97.26125953,98.13834999,98.84333979,99.44614924,99.66134074,0.86228135,0.643431635,0.359729483,0.318440133,0.295889821,0.26195644,0.173671414
E07000098,Hertsmere,-0.2807,51.6774,11935,199022,107822,42682,1065.9,5.52905464,4.101743452,2.338938482,1.775106082,0.986161921,0.783059446,0.332620575,94.47094536,95.89825655,97.66106152,98.22489392,99.01383808,99.21694055,99.66737943,0.975715525,0.547460625,0.484395544,0.424328147,0.357881342,0.275725157,0.178189594
E07000099,North Hertfordshire,-0.1924,51.9593,40,230523,133211,56732,354.9,7.766796446,5.752730109,3.331995183,2.166185292,1.179376351,0.717799823,0.238621299,92.23320355,94.24726989,96.66800482,97.83381471,98.82062365,99.28220018,99.7613787,0.998302885,0.487519501,0.315421231,0.277716063,0.246989812,0.241954996,0.176756518
E07000102,Three Rivers,-0.4608,51.6613,905,196949,93774,36858,1055.8,4.775966106,4.107031736,2.26306075,1.32997019,1.057322614,0.545190211,0.351446337,95.22403389,95.89296826,97.73693925,98.67002981,98.94267739,99.45480979,99.64855366,0.770317114,0.518564613,0.401251906,0.267522739,0.30583712,0.30288345,0.33792917
E07000103,Watford,-0.4028,51.6681,8645,197803,102244,39628,4772.2,5.278255881,4.921403462,3.008604987,2.037845706,1.60230074,0.996047431,0.464684015,94.72174412,95.07859654,96.99139501,97.96215429,98.39769926,99.00395257,99.53531599,1.147446931,0.829077403,0.847936687,0.689496667,0.564913722,0.553359684,0.185873606
E07000105,Ashford,0.8119,51.1252,20,139969,132752,53583,228.6,6.087877184,5.03423789,3.323069027,2.232909653,1.564974973,0.779862559,0.348176654,93.91212282,94.96576211,96.67693097,97.76709035,98.43502503,99.22013744,99.65182335,0.926416093,0.665736749,0.577367206,0.429405703,0.316796553,0.347463516,0.320689023
E07000106,Canterbury,1.1014,51.2833,855,158359,157431,63792,509.9,12.66581087,7.935907141,4.104910427,2.839882565,1.992404645,1.033281269,0.490426604,87.33418913,92.06409286,95.89508957,97.16011743,98.00759535,98.96671873,99.5095734,1.476251605,0.914711077,0.418868411,0.338753388,0.247674611,0.210260723,0.167954316
E07000107,Dartford,0.2541,51.4314,12455,172676,116756,45696,1605.3,5.146750524,3.8754118,2.431118314,1.957027508,1.274799493,0.449045778,0.236057834,94.85324948,96.1245882,97.56888169,98.04297249,98.72520051,99.55095422,99.76394217,0.890985325,0.539083558,0.723547117,0.58163405,0.379907134,0.311837346,0.22130422
E07000108,Dover,1.2892,51.2124,155,151044,116407,50548,369.2,7.450852612,5.45266672,3.9528603,2.863467581,2.340800403,1.212467014,0.607668607,92.54914739,94.54733328,96.0471397,97.13653242,97.6591996,98.78753299,99.39233139,1.249049636,0.476909626,0.409198789,0.321336761,0.251698968,0.213964767,0.171174255
E07000109,Gravesham,0.396,51.4056,660,170115,106899,41724,1079.9,5.322040987,4.406753994,2.879234168,2.219747587,1.19725869,0.540779163,0.201562106,94.67795901,95.59324601,97.12076583,97.78025241,98.80274131,99.45922084,99.79843789,1.359263906,0.908609071,0.810014728,0.668151448,0.495417389,0.441452378,0.251952633
E07000110,Maidstone,0.5806,51.2348,17135,151563,175778,71208,446.9,5.725425816,4.760603162,2.917747735,2.141579797,1.416265148,0.51503174,0.210187066,94.27457418,95.23939684,97.08225226,97.8584202,98.58373485,99.48496826,99.78981293,0.957657843,0.660562161,0.523464882,0.305316875,0.340682338,0.179662235,0.175155889
E07000111,Sevenoaks,0.1717,51.276,130,155211,120516,49013,326.4,4.901960784,4.3058522,2.269729992,1.586811558,1.200131883,0.609756098,0.296761805,95.09803922,95.6941478,97.73027001,98.41318844,98.79986812,99.3902439,99.70323819,0.826173166,0.427167877,0.277642813,0.154359101,0.131882624,0.240693196,0.261848651
E07000112,Folkestone and Hythe,0.9957,51.0544,805,132599,109754,48338,307.5,6.832946636,5.693288472,4.02303866,2.819357652,1.711229947,1.167089525,0.544747082,93.16705336,94.30671153,95.97696134,97.18064235,98.28877005,98.83291047,99.45525292,1.102088167,0.841154595,0.610873549,0.435983142,0.233957219,0.181225082,0.172935581
E07000113,Swale,0.8125,51.3417,15395,164044,151678,60495,406.2,6.258869221,4.858342635,3.271489735,2.461425422,1.50553823,0.563720556,0.450910328,93.74113078,95.14165736,96.72851026,97.53857458,98.49446177,99.43627944,99.54908967,1.157666741,0.531547334,0.356789988,0.34113572,0.21507689,0.234883565,0.212693551
E07000114,Thanet,1.3404,51.3543,130,166985,140585,62200,1356.9,7.668521954,6.634229732,4.549311403,3.243684733,2.479757085,1.422776533,0.450321658,92.33147805,93.36577027,95.4506886,96.75631527,97.52024291,98.57722347,99.54967834,1.104337839,0.953382865,0.65269891,0.437547401,0.365497076,0.242174729,0.214438885
E07000115,Tonbridge and Malling,0.3571,51.273,715,155282,132196,53573,550.6,5.731707317,4.067068524,2.153656279,1.732497957,1.113654643,0.608469901,0.288704439,94.26829268,95.93293148,97.84634372,98.26750204,98.88634536,99.3915301,99.71129556,0.844277674,0.277142659,0.154273372,0.190683737,0.216543958,0.24338796,0.180440274
E07000116,Tunbridge Wells,0.4309,51.1141,18180,137789,115311,48223,348,7.209642897,5.479565614,2.970366721,1.804748062,1.37400187,0.741233489,0.292103143,92.7903571,94.52043439,97.02963328,98.19525194,98.62599813,99.25876651,99.70789686,1.070181368,0.45593965,0.351939185,0.302810078,0.179843177,0.190059869,0.352538276
E07000117,Burnley,-2.2214,53.7789,100,431414,94649,39872,855,6.162074177,4.850559359,3.069742393,2.407177118,1.422309688,0.486150367,0.400554614,93.83792582,95.14944064,96.93025761,97.59282288,98.57769031,99.51384963,99.59944539,1.10452273,0.876607113,0.673189121,0.532954344,0.357813758,0.339174675,0.2310892
E07000118,Chorley,-2.6482,53.6612,875,418497,117731,50132,580.6,5.884926712,5.662881581,3.490136571,2.105654301,1.04180491,0.500834725,0.236503856,94.11507329,94.33711842,96.50986343,97.8943457,98.95819509,99.49916528,99.76349614,0.765696784,0.479280342,0.344875155,0.27868954,0.199071002,0.119246363,0.30848329
E07000119,Fylde,-2.9223,53.7842,19330,432384,81380,37606,491.2,6.481965499,5.131561723,3.255082285,2.644628099,1.925420424,1.114283083,0.452666798,93.5180345,94.86843828,96.74491772,97.3553719,98.07457958,98.88571692,99.5473332,0.958355114,0.458175154,0.363020329,0.34030141,0.20310342,0.184179022,0.246014564
E07000120,Hyndburn,-2.3896,53.7589,85,429238,82236,34790,1126.6,5.319699715,4.817049436,2.834357151,2.017150653,1.299781637,0.79189926,0.280806079,94.68030028,95.18295056,97.16564285,97.98284935,98.70021836,99.20810074,99.71919392,0.970748123,0.729855975,0.538851169,0.487234457,0.311947593,0.259639102,0.247770069
E07000121,Lancaster,-2.7146,54.0691,995,463919,142932,59978,252.1,12.51683066,7.463475904,4.056981553,2.832043249,1.991023133,1.120120946,0.50165871,87.48316934,92.5365241,95.94301845,97.16795675,98.00897687,98.87987905,99.49834129,1.139306059,0.694123091,0.459528655,0.307163042,0.258948095,0.206157229,0.202281738
E07000122,Pendle,-2.1856,53.8655,14655,441045,95753,38066,565.4,4.261200046,3.889597377,2.882072977,2.037366548,1.372260085,0.721180517,0.285456731,95.73879995,96.11040262,97.11792702,97.96263345,98.62773992,99.27881948,99.71454327,1.036508119,1.002004008,1.013573065,0.533807829,0.368391969,0.277377122,0.150240385
E07000123,Preston,-2.6973,53.8115,45,435253,147835,59607,1039,9.797151489,6.27820481,3.494729722,2.39090065,1.550436256,0.817067635,0.44989315,90.20284851,93.72179519,96.50527028,97.60909935,98.44956374,99.18293236,99.55010685,1.42965041,1.115794694,0.958232343,0.551299907,0.408009541,0.408533818,0.281183219
E07000124,Ribble Valley,-2.4451,53.9072,840,445761,61558,26747,105.6,4.517069109,3.775196447,2.708731676,1.380924517,0.828337875,0.421310139,0.21776326,95.48293089,96.22480355,97.29126832,98.61907548,99.17166213,99.57868986,99.78223674,0.416319734,0.256235053,0,0.117027501,0.217983651,0,0.155545186
E07000125,Rossendale,-2.2669,53.694,12555,421988,70876,30561,513.4,5.568201716,5.299062005,3.436633305,2.217659138,1.217391304,0.791268759,0.326420891,94.43179828,94.70093799,96.56336669,97.78234086,98.7826087,99.20873124,99.67357911,0.61285239,0.304543793,0.241167249,0.205338809,0.27173913,0.136425648,0.192012289
E07000126,South Ribble,-2.7107,53.7281,30,425975,111042,48586,981.4,6.563749445,5.503281411,2.767513169,2.071814003,1.086223182,0.474166122,0.129896083,93.43625056,94.49671859,97.23248683,97.928186,98.91377682,99.52583388,99.87010392,0.666370502,0.395350676,0.314490133,0.199853441,0.134934557,0.163505559,0.24980016
E07000127,West Lancashire,-2.8825,53.6096,1060,412911,117427,48533,338.8,9.924253051,4.908186031,2.806599762,1.497492885,0.948863275,0.440971685,0.22737608,90.07574695,95.09181397,97.19340024,98.50250711,99.05113673,99.55902832,99.77262392,1.052040959,0.514844689,0.340193911,0.271039436,0.191046297,0.193408634,0.181900864
E07000128,Wyre,-2.8537,53.9029,28855,445536,111949,50767,396.7,5.948609644,5.515898767,3.235102724,2.375920122,1.627921317,0.967569732,0.411734431,94.05139036,94.48410123,96.76489728,97.62407988,98.37207868,99.03243027,99.58826557,0.762642262,0.370816724,0.232406805,0.218642956,0.215822902,0.200186841,0.220572017
E07000129,Blaby,-1.2216,52.5717,430,297375,102933,42575,788.9,5.520067494,4.418285899,2.91177404,2.055976589,1.184927719,0.713872275,0.235162374,94.47993251,95.5817141,97.08822596,97.94402341,98.81507228,99.28612773,99.76483763,0.662890201,0.443441103,0.317359568,0.300142568,0.276483135,0.241173066,0.223964166
E07000130,Charnwood,-1.1463,52.737,2520,315833,183978,73785,659.2,7.30415948,5.093632959,2.932384342,2.283146475,1.34372609,0.743773063,0.284583883,92.69584052,94.90636704,97.06761566,97.71685352,98.65627391,99.25622694,99.71541612,0.802214111,0.468164794,0.332147094,0.295038809,0.263006886,0.201798893,0.173526758
E07000131,Harborough,-1.0077,52.5395,38320,293977,97631,40413,165,4.920127796,4.779116466,2.815507781,1.679389313,1.331709916,0.671391272,0.353122931,95.0798722,95.22088353,97.18449222,98.32061069,98.66829008,99.32860873,99.64687707,0.638977636,0.401606426,0.224880813,0.109051254,0.190244274,0.139873182,0.27587729
E07000132,Hinckley and Bosworth,-1.3906,52.6166,340,302271,113640,49446,382.2,5.910652921,5.132500761,2.955404384,2.197584637,1.099273936,0.536464002,0.208669259,94.08934708,94.86749924,97.04459562,97.80241536,98.90072606,99.463536,99.79133074,0.744558992,0.609198903,0.377928949,0.263974131,0.135712832,0.155496812,0.189699327
E07000133,Melton,-0.856,52.7967,2380,322729,51751,22599,107.5,5.910951894,6.078619367,2.867056245,1.730496454,1.124197002,0.593424218,0.16217312,94.08904811,93.92138063,97.13294375,98.26950355,98.875803,99.40657578,99.83782688,0.895598772,0.479386385,0.365230095,0.283687943,0.200749465,0,0.3040746
E07000134,North West Leicestershire,-1.4051,52.7532,32270,317453,104706,44973,374.8,7.113015533,4.80292564,3.074155834,1.871546961,1.261355958,0.47571128,0.191800527,92.88698447,95.19707436,96.92584417,98.12845304,98.73864404,99.52428872,99.80819947,0.910551687,0.446972775,0.286158123,0.20718232,0.187701779,0.182965877,0.299688324
E07000135,Oadby and Wigston,-1.0933,52.587,265,299185,57753,22617,2454.9,6.720195497,3.924722535,2.108296678,1.366080512,0.946100917,0.610084335,0.125944584,93.2798045,96.07527747,97.89170332,98.63391949,99.05389908,99.38991566,99.87405542,0.872752662,0.482547853,0.53086607,0.363319285,0.215022936,0,0
E07000136,Boston,-0.0218,52.9743,1970,343714,70503,29404,193.7,5.613621038,4.147465438,2.366356057,2.198687694,1.19047619,1.007740616,0.265674814,94.38637896,95.85253456,97.63364394,97.80131231,98.80952381,98.99225938,99.73432519,1.095751854,1.273344652,0.980872977,0.575572695,0.412541254,0.292098729,0
E07000137,East Lindsey,0.0299,53.25,31495,374440,142292,64754,80.5,6.833416708,5.031247528,3.489539749,2.084320227,1.58414927,0.885868292,0.460829493,93.16658329,94.96875247,96.51046025,97.91567977,98.41585073,99.11413171,99.53917051,0.8004002,0.474645993,0.376569038,0.20724775,0.207832995,0.210921022,0.201612903
E07000138,Lincoln,-0.5549,53.2247,150,370718,103813,42507,2908.9,16.25013126,9.016565318,5.01713382,2.9502094,1.528362888,0.853674803,0.473778794,83.74986874,90.98343468,94.98286618,97.0497906,98.47163711,99.1463252,99.52622121,1.995169589,1.502760886,1.317986117,0.604932527,0.44087391,0.200080032,0.245057997
E07000139,North Kesteven,-0.4459,53.0812,1910,354897,118075,50989,128,6.342721995,5.160541586,2.934765686,1.805422648,1.254138019,0.563867378,0.325977934,93.657278,94.83945841,97.06523431,98.19457735,98.74586198,99.43613262,99.67402207,0.752526338,0.348162476,0.311380975,0.223285486,0.159154571,0.187955793,0.167168171
E07000140,South Holland,-0.032,52.7979,29950,324067,95119,40703,126.8,5.793932769,4.096127651,2.583209141,1.808422791,1.24003543,0.670765791,0.174615301,94.20606723,95.90387235,97.41679086,98.19157721,98.75996457,99.32923421,99.8253847,0.956545504,0.778361549,0.596125186,0.454170107,0.161043562,0.139742873,0.163701844
E07000141,South Kesteven,-0.5184,52.8547,110,329594,143400,62850,152.1,6.692913386,4.926674326,2.886453422,1.812548412,1.029919151,0.631029671,0.279165442,93.30708661,95.07332567,97.11354658,98.18745159,98.97008085,99.36897033,99.72083456,0.961362388,0.506859499,0.44603033,0.232378002,0.180235851,0.18202779,0.22039377
E07000142,West Lindsey,-0.4774,53.3929,2085,389522,95152,42345,82.3,7.338675664,5.246814434,3.483309144,1.805113126,1.185336943,0.6201935,0.252550763,92.66132434,94.75318557,96.51669086,98.19488687,98.81466306,99.3798065,99.74744924,0.913819767,0.37477246,0.20733983,0.204198317,0.256091315,0.165384933,0.20204061
E07000143,Breckland,0.8369,52.5881,21580,302678,141478,60359,108.4,6.88333029,4.795179178,3.062546893,2.070109224,1.421749512,0.766978923,0.38368336,93.11666971,95.20482082,96.93745311,97.92989078,98.57825049,99.23302108,99.61631664,0.730326821,0.641066735,0.511561285,0.428890033,0.298458867,0.175644028,0.168282176
E07000144,Broadland,1.3096,52.7014,60,316663,131722,57760,238.6,6.398201145,5.025902729,2.956010087,1.967789498,1.372037646,0.735384996,0.307754064,93.60179886,94.97409727,97.04398991,98.0322105,98.62796235,99.264615,99.69224594,0.766557645,0.502590273,0.210142897,0.170125893,0.198435197,0.185391175,0.200709172
E07000145,Great Yarmouth,1.6614,52.6408,1965,311075,99743,44544,572.2,7.481117372,5.082720588,4.003532529,2.635003253,1.435039521,0.834397616,0.592865174,92.51888263,94.91727941,95.99646747,97.36499675,98.56496048,99.16560238,99.40713483,1.558566119,1.056985294,0.981257973,0.487963565,0.422070447,0.297999149,0.204436267
E07000146,King's Lynn and West Norfolk,0.4706,52.7272,14850,317216,154318,67464,107.2,6.240512734,4.968606617,2.7584,2.180802492,1.449982913,0.808625337,0.401748789,93.75948727,95.03139338,97.2416,97.81919751,98.55001709,99.19137466,99.59825121,0.927643785,0.694276745,0.416,0.295428909,0.268515354,0.237830981,0.147701761
E07000147,North Norfolk,1.1695,52.8504,25,332832,102988,48374,106.6,7.294329974,5.299760192,3.661112415,3.156034338,2.137935476,1.179723502,0.661123228,92.70567003,94.70023981,96.33888759,96.84396566,97.86206452,98.8202765,99.33887677,0.827192059,0.479616307,0.293358367,0.210402289,0.160989117,0.153609831,0.136314068
E07000148,Norwich,1.2794,52.6323,2350,308886,143926,64459,3688.2,16.53532908,11.54791155,6.083861639,4.718776662,3.458784093,2.036307751,0.822535211,83.46467092,88.45208845,93.91613836,95.28122334,96.54121591,97.96369225,99.17746479,2.201188642,1.774501775,1.056612168,0.656297171,0.419015694,0.38420901,0.225352113
E07000149,South Norfolk,1.2759,52.5145,26110,295780,141948,61381,156.4,6.955355432,4.972980368,3.306094442,2.251612198,1.576248313,0.751111645,0.427350427,93.04464457,95.02701963,96.69390556,97.7483878,98.42375169,99.24888835,99.57264957,0.958037938,0.41042479,0.343085272,0.273253908,0.188933873,0.150222329,0.200320513
E07000163,Craven,-2.1743,54.0799,205,464893,56923,26069,48.4,6.065162907,4.697327044,3.297307199,2.029252866,1.409426987,0.876514566,0.410958904,93.93483709,95.30267296,96.7026928,97.97074713,98.59057301,99.12348543,99.5890411,0.877192982,0.393081761,0.2747756,0.1976545,0.231053604,0.193348801,0
E07000164,Hambleton,-1.3193,54.2873,1285,488149,90691,40802,69.2,5.592941528,4.18707721,2.502017756,1.643456448,1.075577226,0.519973589,0.178688987,94.40705847,95.81292279,97.49798224,98.35654355,98.92442277,99.48002641,99.82131101,0.747719456,0.40821087,0.172950536,0.129746562,0.107557723,0.165070981,0.188093671
E07000165,Harrogate,-1.5957,54.0671,33220,463534,162666,71169,124.4,6.371419164,4.742530197,2.961527816,1.951857194,1.35860007,0.707763791,0.338429927,93.62858084,95.2574698,97.03847218,98.04814281,98.64139993,99.29223621,99.66157007,0.82318077,0.381436745,0.304456131,0.2028489,0.219838199,0.135069426,0.181301747
E07000166,Richmondshire,-1.934,54.3615,155,496225,49764,20944,37.7,5.127144925,4.31372549,2.369002208,1.918387254,1.171428571,0.984974958,0.359028511,94.87285508,95.68627451,97.63099779,98.08161275,98.82857143,99.01502504,99.64097149,0.723589001,0.445632799,0.401525798,0.162575191,0,0,0
E07000167,Ryedale,-0.8517,54.2104,1460,480011,54709,24714,36.3,6.213244694,4.68781169,2.720432182,2.059925094,0.990338164,0.768815754,0.315357931,93.78675531,95.31218831,97.27956782,97.94007491,99.00966184,99.23118425,99.68464207,1.022756328,0.199481348,0.385876905,0.216076059,0.241545894,0.269759914,0.157678966
E07000168,Scarborough,-0.6353,54.3664,34500,497619,108736,51123,133.2,7.5,5.691356886,4.120771046,2.874571102,1.824274013,1.043548063,0.400065317,92.5,94.30864311,95.87922895,97.1254289,98.17572599,98.95645194,99.59993468,1.125,0.691818098,0.393391031,0.228745711,0.248200546,0.20068232,0.244937949
E07000169,Selby,-1.1353,53.7875,100,432688,91990,39560,153.5,5.858214235,4.295326758,2.809886289,1.554985572,1.099764336,0.504540868,0.229203182,94.14178576,95.70467324,97.19011371,98.44501443,98.90023566,99.49545913,99.77079682,0.707513797,0.46087197,0.328916455,0.200384739,0.196386489,0.252270434,0.134825401
E07000170,Ashfield,-1.2583,53.0918,1425,355201,126305,54508,1152.8,5.968625267,5.420873256,3.267528931,2.19521045,1.425507758,0.521724953,0.205660562,94.03137473,94.57912674,96.73247107,97.80478955,98.57449224,99.47827505,99.79433944,0.835421888,0.482284097,0.442477876,0.21165941,0.252302258,0.163039048,0.146900402
E07000171,Bassetlaw,-0.9588,53.3329,45140,382275,117804,51458,184.7,5.645076356,4.514975414,2.871186705,1.767057913,1.114758159,0.671499428,0.293588408,94.35492364,95.48502459,97.12881329,98.23294209,98.88524184,99.32850057,99.70641159,0.789889415,0.447027269,0.390106889,0.225719076,0.247724035,0.190766883,0.189411876
E07000172,Broxtowe,-1.262,52.9757,100,342283,110944,48361,1385,9.615577637,6.559766764,3.524814381,2.226896852,1.371643084,0.651574639,0.330482115,90.38442236,93.44023324,96.47518562,97.77310315,98.62835692,99.34842536,99.66951788,1.254642176,0.765306122,0.468933177,0.21761207,0.360958706,0.25060563,0.194401244
E07000173,Gedling,-1.1193,53.0286,1880,348277,117258,51551,977.4,6.212558243,5.700313846,3.635067712,2.513441731,1.526364477,0.825003966,0.245074936,93.78744176,94.29968615,96.36493229,97.48655827,98.47363552,99.17499603,99.75492506,0.66563124,0.547405299,0.356379187,0.226727991,0.264305537,0.277645566,0.188519182
E07000174,Mansfield,-1.1737,53.171,49560,364075,110486,48030,1440.2,6.990442321,5.231203671,3.527232308,2.018755816,1.423063442,0.508552936,0.253660786,93.00955768,94.76879633,96.47276769,97.98124418,98.57693656,99.49144706,99.74633921,1.000222272,0.847158489,0.629862912,0.393728971,0.245355766,0.27739251,0.172950536
E07000175,Newark and Sherwood,-0.9199,53.124,105,359080,122954,53331,188.8,6.819976313,5.171173763,3.562607589,2.374440577,1.289736603,0.54007345,0.328833506,93.18002369,94.82882624,96.43739241,97.62555942,98.7102634,99.45992655,99.67116649,0.98697197,0.503452244,0.374223486,0.217553456,0.302755071,0.180024483,0.173070267
E07000176,Rushcliffe,-1.0374,52.9007,2390,334124,119078,49883,291,7.981038986,6.05687048,3.070659674,1.925860658,1.412956545,0.723888314,0.292242295,92.01896101,93.94312952,96.92934033,98.07413934,98.58704346,99.27611169,99.7077577,1.015768598,0.410913872,0.207010765,0.22027818,0.233271128,0.238644499,0.221395678
E07000177,Cherwell,-1.2761,51.9586,45785,229130,161013,65894,273.5,6.665146679,5.333271011,3.563255966,2.383449328,1.58771746,0.669706469,0.377844568,93.33485332,94.66672899,96.43674403,97.61655067,98.41228254,99.33029353,99.62215543,1.253989968,0.747873235,0.607107832,0.429020879,0.340599455,0.178113423,0.214684414
E07000178,Oxford,-1.2417,51.7547,85,206500,162039,55238,3553,15.87878788,10.33258374,5.113114843,4.012268403,2.95688812,1.965442765,0.983198507,84.12121212,89.66741626,94.88688516,95.9877316,97.04311188,98.03455724,99.01680149,1.67965368,1.952893834,1.916743156,1.470956435,0.639530509,0.323974082,0.373366521
E07000179,South Oxfordshire,-1.071,51.6338,2560,193175,149080,61497,219.7,6.770925893,5.154203633,2.976744186,1.844839305,1.161732427,0.67114094,0.262467192,93.22907411,94.84579637,97.02325581,98.1551607,98.83826757,99.32885906,99.73753281,1.155144837,0.603536725,0.300957592,0.242742014,0.214144226,0.207569363,0.182268883
E07000180,Vale of White Horse,-1.4409,51.6343,38330,192976,138910,57498,240.5,7.522817369,5.978681594,3.15135628,1.936908875,1.230732465,0.586730856,0.331098419,92.47718263,94.02131841,96.84864372,98.06309113,98.76926753,99.41326914,99.66890158,1.152392367,0.535937593,0.398905858,0.22653905,0.149360736,0.112832857,0.16554921
E07000181,West Oxfordshire,-1.5069,51.8377,70,215553,114233,47981,159.9,6.447368421,4.916390537,3.292829283,2.059313562,1.498253158,0.739433661,0.418181818,93.55263158,95.08360946,96.70717072,97.94068644,98.50174684,99.26056634,99.58181818,0.76754386,0.385297064,0.300030003,0.233255581,0.268744961,0.168053105,0.227272727
E07000187,Mendip,-2.5444,51.2028,3665,144991,116090,50294,157,7.220496894,5.57270082,3.65905067,2.377858628,1.837437795,1.092856095,0.463205733,92.77950311,94.42729918,96.34094933,97.62214137,98.1625622,98.9071439,99.53679427,0.887311446,0.573141698,0.25292977,0.324844075,0.255199694,0.146692093,0.262191924
E07000188,Sedgemoor,-2.9533,51.1849,13605,143276,125354,53904,222.2,7.40234375,5.599762029,3.389961989,2.237164582,1.172898309,0.68707483,0.326957659,92.59765625,94.40023797,96.61003801,97.76283542,98.82710169,99.31292517,99.67304234,1.220703125,1.041124414,0.620588007,0.34562936,0.178613956,0.170068027,0.286087952
E07000189,South Somerset,-2.7099,50.9879,140,121192,172675,75936,180,6.443317905,4.926269798,2.975397974,1.857001461,1.409557059,0.766641735,0.406812758,93.5566821,95.0737302,97.02460203,98.14299854,98.59044294,99.23335826,99.59318724,0.955109838,0.546149645,0.289435601,0.188528067,0.17455815,0.186985789,0.162725103
E07000192,Cannock Chase,-1.9805,52.7124,725,312745,100529,43457,1274.3,6.371926584,5.587522714,3.346882297,1.520158625,0.897763331,0.481347774,0.235439901,93.62807342,94.41247729,96.6531177,98.47984137,99.10223667,99.51865223,99.7645601,0.865750895,0.416414294,0.25944824,0.220312844,0.270876867,0.250701966,0.247831475
E07000193,East Staffordshire,-1.812,52.8631,18630,329519,124019,51293,320.5,5.53906105,5.109301878,3.328548971,1.709079485,1.113512805,0.662424823,0.187110187,94.46093895,94.89069812,96.67145103,98.29092052,98.88648719,99.33757518,99.81288981,1.06698831,0.801333419,0.683480282,0.314169023,0.327503766,0.217902902,0.155925156
E07000194,Lichfield,-1.8048,52.6879,125,310036,106439,45630,321.3,5.391364581,4.852595878,3.037081648,1.817295641,0.998922027,0.533548909,0.218760938,94.60863542,95.14740412,96.96291835,98.18270436,99.00107797,99.46645109,99.78123906,0.634957285,0.347856335,0.172072615,0.243698649,0.215594682,0.202101859,0.17500875
E07000195,Newcastle-under-Lyme,-2.3179,52.9937,970,344081,123306,53423,584.5,9.534152187,5.206581353,3.401563082,2.042253521,1.280425963,0.572562791,0.327868852,90.46584781,94.79341865,96.59843692,97.95774648,98.71957404,99.42743721,99.67213115,1.497902936,0.585009141,0.409378489,0.320102433,0.253549696,0.267195969,0.177226407
E07000196,South Staffordshire,-2.1765,52.625,17015,303026,110474,46121,271.2,4.62621522,3.640945429,2.482758621,1.622065567,0.985499969,0.463898242,0.170648464,95.37378478,96.35905457,97.51724138,98.37793443,99.01450003,99.53610176,99.82935154,0.558721645,0.260688217,0.172413793,0.205324755,0.188312096,0.187055743,0.203152934
E07000197,Stafford,-2.1762,52.8482,75,327866,136870,60047,228.8,6.603682638,5.456304418,3.334193216,2.334287602,1.389506447,0.515901522,0.204813108,93.39631736,94.54369558,96.66580678,97.6657124,98.61049355,99.48409848,99.79518689,0.915839198,0.677200903,0.354701406,0.220215811,0.194530903,0.13060798,0.182868846
E07000198,Staffordshire Moorlands,-1.9816,53.0792,840,353540,95851,42355,166.4,4.827961376,4.062465873,2.785721851,1.52972359,1.113471541,0.523433725,0.227833681,95.17203862,95.93753413,97.21427815,98.47027641,98.88652846,99.47656627,99.77216632,0.611995104,0.382221252,0.264802457,0.189322226,0.21976412,0.120792398,0.189861401
E07000199,Tamworth,-1.6767,52.6263,19515,303220,78646,32895,2549.6,6.408808583,4.293696696,3.102599765,1.589886026,0.87832048,0.347265286,0.121845083,93.59119142,95.7063033,96.89740024,98.41011397,99.12167952,99.65273471,99.87815492,0.705815923,0.343103617,0.267465497,0.2873288,0.16066838,0.248046633,0
E07000200,Babergh,0.915,52.0507,95,243163,92332,40200,155.5,6.183820415,5,2.843347639,1.917808219,1.340650725,0.648039051,0.354575946,93.81617958,95,97.15665236,98.08219178,98.65934927,99.35196095,99.64542405,0.77650713,0.35046729,0.268240343,0.166044002,0.156801254,0.252482747,0.143747005
E07000202,Ipswich,1.1593,52.0552,925,244356,139644,59507,3534.3,8.510475021,6.676040202,4.197260274,2.925625661,1.976072053,0.875718709,0.466497031,91.48952498,93.3239598,95.80273973,97.07437434,98.02392795,99.12428129,99.53350297,1.573171668,1.145654325,1.178082192,0.646222536,0.369673343,0.309597523,0.265055131
E07000203,Mid Suffolk,1.0926,52.2468,20855,265459,102702,44343,117.9,5.977859779,4.824931944,2.857688999,2.345559125,1.405330564,0.602685383,0.360576923,94.02214022,95.17506806,97.142311,97.65444088,98.59466944,99.39731462,99.63942308,0.73800738,0.328545949,0.238937207,0.14939867,0.138456213,0.114433933,0.138683432
E07000207,Elmbridge,-0.392,51.3572,55,163238,138757,55590,1459.6,5.612403101,4.364702155,2.022030305,1.667312912,1.391016606,0.921423087,0.451767207,94.3875969,95.63529785,97.9779697,98.33268709,98.60898339,99.07857691,99.54823279,0.723514212,0.435678074,0.31028598,0.290810392,0.245113058,0.255950857,0.354327221
E07000208,Epsom and Ewell,-0.2616,51.3394,1110,161461,80939,31321,2375.4,6.516952884,4.314011423,2.25455852,1.680672269,1.045934872,0.571673574,0.438596491,93.48304712,95.68598858,97.74544148,98.31932773,98.95406513,99.42832643,99.56140351,0.8072802,0.546846518,0.31438067,0.309597523,0.323485012,0.21437759,0.234962406
E07000209,Guildford,-0.5622,51.248,16595,150851,143646,55760,530.2,9.862104188,5.881619938,3.206161562,2.092027235,1.380658562,0.56692137,0.299836453,90.13789581,94.11838006,96.79383844,97.90797277,98.61934144,99.43307863,99.70016355,1.02145046,0.685358255,0.417935399,0.274544257,0.244364347,0.164325035,0.181719062
E07000210,Mole Valley,-0.3256,51.2122,40,147214,87386,37139,338.3,6.360636064,4.750162232,2.684009497,1.7649451,1.166639087,0.632058854,0.37468776,93.63936394,95.24983777,97.3159905,98.2350549,98.83336091,99.36794115,99.62531224,0.825082508,0.454250487,0.206462269,0.284668564,0.248221082,0.259040514,0.260199833
E07000211,Reigate and Banstead,-0.1918,51.2533,975,152009,150852,59849,1168.1,5.980650836,4.473296292,2.594021215,1.984816156,1.328036322,0.642365142,0.275055871,94.01934916,95.52670371,97.40597878,98.01518384,98.67196368,99.35763486,99.72494413,0.967458223,0.368522508,0.385728062,0.347342827,0.2553916,0.232180172,0.257864879
E07000212,Runnymede,-0.5408,51.3933,13965,167042,88085,34838,1128.6,11.67476801,4.788846232,2.763819095,2.027027027,1.342281879,0.73664825,0.410496995,88.32523199,95.21115377,97.2361809,97.97297297,98.65771812,99.26335175,99.58950301,1.281484755,0.656698323,0.372231528,0.355618777,0.305064063,0.212494688,0.146606069
E07000213,Spelthorne,-0.4675,51.4244,35,170605,102953,41805,2293.9,5.107624954,4.655075715,2.905534689,2.087073609,1.43045051,0.639237564,0.387915834,94.89237505,95.34492428,97.09446531,97.91292639,98.56954949,99.36076244,99.61208417,0.668855649,0.640974281,0.496066898,0.411430281,0.328839198,0.290562529,0.235100505
E07000214,Surrey Heath,-0.6712,51.3433,1230,161313,90460,36008,951.2,5.542038389,4.414626652,2.658103648,1.62412993,0.968332897,0.426489752,0.307995565,94.45796161,95.58537335,97.34189635,98.37587007,99.0316671,99.57351025,99.69200444,0.946201676,0.40971013,0.356792436,0.386697602,0.174474396,0.236938751,0.246396452
E07000215,Tandridge,-0.0435,51.227,14070,149345,87878,35623,354.1,5.5835372,4.363722137,2.435125987,1.774600505,1.302614089,0.466279995,0.332062477,94.4164628,95.63627786,97.56487401,98.2253995,98.69738591,99.53372,99.66793752,0.791480789,0.471753745,0.282060925,0.168208579,0.132919805,0.170590242,0.122986103
E07000216,Waverley,-0.6335,51.1501,155,139877,128231,52448,371.5,9.963273378,4.961310878,2.39978903,1.716266021,1.04061554,0.795818054,0.273701817,90.03672662,95.03868912,97.60021097,98.28373398,98.95938446,99.20418195,99.72629818,1.553818627,0.500682749,0.230748945,0.220034105,0.189202825,0.195053445,0.152056565
E07000217,Woking,-0.5605,51.3145,795,158249,103940,41437,1634.4,6.329574391,5.157301612,2.754124534,1.977159172,1.288188702,0.720634158,0.274689339,93.67042561,94.84269839,97.24587547,98.02284083,98.7118113,99.27936584,99.72531066,0.970049715,0.782595085,0.498935604,0.392576731,0.30463922,0.240211386,0.196206671
E07000218,North Warwickshire,-1.6276,52.5471,19010,294421,65035,27580,228.8,6.035127055,4.700623137,3.03761533,1.95215527,1.001780944,0.635183651,0.288282177,93.96487294,95.29937686,96.96238467,98.04784473,98.99821906,99.36481635,99.71171782,0.653961136,0.406393931,0.283889283,0.22568269,0.222617988,0,0.169577751
E07000219,Nuneaton and Bedworth,-1.4755,52.5011,215,289373,134204,56586,1699.7,6.110154905,4.898123633,3.038243184,1.990748873,1.294839229,0.490807105,0.311408889,93.88984509,95.10187637,96.96175682,98.00925113,98.70516077,99.50919289,99.68859111,0.903614458,0.489236791,0.49909539,0.322032906,0.216839105,0.233717669,0.235915825
E07000220,Rugby,-1.3282,52.3845,1085,276476,114366,47013,325.7,6.805111821,4.841264376,2.845993406,1.930709721,1.23561013,0.609384522,0.248648649,93.19488818,95.15873562,97.15400659,98.06929028,98.76438987,99.39061548,99.75135135,0.851970181,0.516493354,0.571889928,0.403632694,0.345356869,0.253910217,0.162162162
E07000221,Stratford-on-Avon,-1.6226,52.1786,18395,253437,134727,59464,137.8,6.419415844,5.145197319,2.730065633,1.903818642,1.248479077,0.694100149,0.251539022,93.58058416,94.85480268,97.26993437,98.09618136,98.75152092,99.30589985,99.74846098,0.787980668,0.521221147,0.279290602,0.165070981,0.158704967,0.123946455,0.165486198
E07000222,Warwick,-1.5832,52.3102,155,268090,148452,62619,524.8,10.17145646,6.035352195,3.003849699,1.998168794,1.365514763,0.824649524,0.508339952,89.82854354,93.96464781,96.9961503,98.00183121,98.63448524,99.17535048,99.49166005,1.037281103,0.636976485,0.352437239,0.242365487,0.239563994,0.187420346,0.238284353
E07000223,Adur,-0.299,50.8438,1020,106296,64547,27678,1534.4,8,5.962521295,4.550195567,3.900300023,2.504672897,1.341239588,0.627004958,92,94.03747871,95.44980443,96.09969998,97.4953271,98.65876041,99.37299504,0.732984293,0.464612049,0.260756193,0.230786984,0.249221184,0.282366229,0.21872266
E07000224,Arun,-0.568,50.8406,21785,105536,164896,72661,746.1,6.901579587,5.516197396,3.589153855,2.83499898,1.896239974,1.064859632,0.588537531,93.09842041,94.4838026,96.41084614,97.16500102,98.10376003,98.93514037,99.41146247,1.012555691,0.605510142,0.393414841,0.407913522,0.254995596,0.184391278,0.210191975
E07000225,Chichester,-0.7425,50.9373,75,116059,124068,54118,157.8,9.8496101,5.594346049,3.209694588,2.357195473,1.730589336,0.899464149,0.55187638,90.1503899,94.40565395,96.79030541,97.64280453,98.26941066,99.10053585,99.44812362,1.253249165,0.468324251,0.245639892,0.267863122,0.175397568,0.191375351,0.162316582
E07000226,Crawley,-0.1821,51.1256,1035,137822,118495,45502,2634.9,6.142643764,4.940197608,3.327023461,2.481542248,1.484305296,0.660792952,0.40096231,93.85735624,95.05980239,96.67297654,97.51845775,98.5156947,99.33920705,99.59903769,0.840179238,0.895591379,0.860437102,0.649439431,0.446102685,0.305922663,0.320769848
E07000227,Horsham,-0.367,50.9934,23145,122819,146776,62370,276.8,7.869951096,5.30126885,3.055026203,2.480955322,1.289572165,0.647548566,0.343180136,92.1300489,94.69873115,96.9449738,97.51904468,98.71042783,99.35245143,99.65681986,0.860351386,0.465023583,0.267984755,0.205888408,0.151714372,0.15417823,0.168225557
E07000228,Mid Sussex,-0.1274,51.0205,60,126224,152570,63349,456.8,6.97287839,5.335856197,3.484410489,2.406919895,1.345632122,0.721281101,0.455321571,93.02712161,94.6641438,96.51558951,97.59308011,98.65436788,99.2787189,99.54467843,0.874890639,0.50457269,0.335535825,0.235050771,0.244167119,0.231604023,0.142287991
E07000229,Worthing,-0.3963,50.8287,1195,104470,111338,49538,3423.7,9.549256506,7.885650044,5.365450998,3.836490799,2.793827251,1.644452138,0.543091168,90.45074349,92.11434996,94.634549,96.1635092,97.20617275,98.35554786,99.45690883,1.335966543,0.68256645,0.487768273,0.33951246,0.329115776,0.173100225,0.267094017
E07000234,Bromsgrove,-2.0167,52.3622,19050,273791,99186,41266,457.1,5.776636714,4.680028487,2.747059856,1.447768951,1.10407659,0.642278693,0.158714413,94.22336329,95.31997151,97.25294014,98.55223105,98.89592341,99.35772131,99.84128559,0.641848524,0.406958999,0.175530981,0.148489123,0.154416306,0.139625803,0.148794762
E07000235,Malvern Hills,-2.3462,52.1831,45,253907,79483,34892,137.7,6.826971582,5.249149786,2.88590604,2.061347273,1.45631068,0.845944168,0.39852851,93.17302842,94.75085021,97.11409396,97.93865273,98.54368932,99.15405583,99.60147149,0.924836052,0.443590123,0.268456376,0.24657264,0.170328734,0.187987593,0.204373595
E07000236,Redditch,-1.9512,52.2823,1155,264902,87034,36378,1604.4,6.139882541,4.445813892,2.75646744,1.874475427,1.187150838,0.52933889,0.230832646,93.86011746,95.55418611,97.24353256,98.12552457,98.81284916,99.47066111,99.76916735,0.867592098,0.572233471,0.44603033,0.279772452,0.149640862,0.225250591,0.247320692
E07000237,Worcester,-2.2109,52.1963,15540,255359,103866,44722,3121.4,9.684525908,6.325962806,3.719531497,2.230455164,1.596102151,0.732560682,0.304514762,90.31547409,93.67403719,96.2804685,97.76954484,98.40389785,99.26743932,99.69548524,1.233697568,0.69556304,0.514403292,0.264630274,0.336021505,0.218674831,0.264795446
E07000238,Wychavon,-2.0512,52.165,25,251844,132495,57356,199.7,5.980933266,4.230093677,2.704245451,1.990672278,1.347280793,0.558659218,0.219360317,94.01906673,95.76990632,97.29575455,98.00932772,98.65271921,99.44134078,99.78063968,0.852985449,0.402517564,0.428112736,0.170629052,0.191686292,0.184173369,0.176903481
E07000239,Wyre Forest,-2.2756,52.3796,1465,275771,101609,45320,520,6.211492519,5.461006172,3.164738503,1.863447756,1.308239614,0.518837803,0.278810409,93.78850748,94.53899383,96.8352615,98.13655224,98.69176039,99.4811622,99.72118959,0.75443229,0.467551898,0.334640023,0.264051301,0.153010481,0.239463602,0.092936803
E07000240,St Albans,-0.3428,51.7724,29870,209482,148173,58991,919.3,6.666058727,4.892498169,2.147770575,1.481651376,1.258683132,0.735962954,0.261142061,93.33394127,95.10750183,97.85222943,98.51834862,98.74131687,99.26403705,99.73885794,1.094291446,0.532516808,0.247439006,0.252293578,0.237487383,0.206731167,0.217618384
E07000241,Welwyn Hatfield,-0.1944,51.7677,535,209206,119839,46209,925,8.68620349,4.712218108,2.638816134,1.80424939,1.22445856,0.632125522,0.407283182,91.31379651,95.28778189,97.36118387,98.19575061,98.77554144,99.36787448,99.59271682,1.350016464,0.740491417,0.425615506,0.417972832,0.26785031,0.282198894,0.299472928
E07000242,East Hertfordshire,-0.0087,51.865,3265,220364,150160,62021,315.7,6.240159112,4.795706371,2.829283887,1.782598444,1.067729084,0.513836893,0.299145299,93.75984089,95.20429363,97.17071611,98.21740156,98.93227092,99.48616311,99.7008547,0.74583575,0.346260388,0.239769821,0.235793445,0.132802125,0.110107906,0.213675214
E07000243,Stevenage,-0.1908,51.9053,24420,224521,89501,36511,3444.8,7.164750958,5.328357024,2.817368247,1.641710265,1.298701299,0.504975494,0.400766684,92.83524904,94.67164298,97.18263175,98.35828973,98.7012987,99.49502451,99.59923332,1.021711367,0.635273565,0.538614518,0.496121234,0.429717341,0.297044408,0.174246384
E07000244,East Suffolk,1.4622,52.2372,225,265500,246055,110747,195.1,7.087917957,5.167186417,3.027476255,2.10801964,1.811018992,0.970368556,0.441780822,92.91208204,94.83281358,96.97252374,97.89198036,98.18898101,99.02963144,99.55821918,1.20179468,0.433125433,0.381614654,0.22913257,0.146998295,0.198971471,0.171232877
E07000245,West Suffolk,0.6219,52.2778,1200,267629,179951,78746,173.9,7.129618189,5.361334675,2.921798911,2.007116139,1.55146741,0.770261219,0.370210403,92.87038181,94.63866533,97.07820109,97.99288386,98.44853259,99.22973878,99.6297896,0.864945014,0.58685446,0.405805404,0.296505793,0.240165234,0.167448091,0.154254335
E07000246,Somerset West and Taunton,-3.3628,51.0868,23275,132836,157448,69986,132.6,7.373348938,5.69199129,3.744520214,2.101897474,1.57793765,0.823345492,0.356608766,92.62665106,94.30800871,96.25547979,97.89810253,98.42206235,99.17665451,99.64339123,0.877779636,0.544398742,0.395762299,0.262081979,0.239808153,0.130276186,0.143793857
E08000001,Bolton,-2.4669,53.5786,100,409211,295961,118790,2117,5.174653326,4.71024755,3.023794248,1.98753349,1.447099796,0.749521989,0.323953196,94.82534667,95.28975245,96.97620575,98.01246651,98.5529002,99.25047801,99.6760468,1.176057574,0.948847221,0.990264721,0.519437913,0.405308034,0.248565966,0.265931728
E08000002,Bury,-2.3122,53.5876,1050,410155,193851,80696,1948.6,5.9842801,5.818414322,3.797733949,2.355967498,1.520977527,0.638801696,0.275235671,94.0157199,94.18158568,96.20226605,97.6440325,98.47902247,99.3611983,99.72476433,0.893176134,0.745950554,0.60847671,0.449144584,0.384516791,0.192741891,0.206426753
E08000003,Manchester,-2.2326,53.4509,24100,394923,551943,214732,4772.7,11.38850575,9.926494363,6.822631167,5.064318611,3.708868447,1.974110032,0.797546012,88.61149425,90.07350564,93.17736883,94.93568139,96.29113155,98.02588997,99.20245399,1.293103448,1.347244078,1.370399374,1.076388276,0.685994467,0.503416037,0.383435583
E08000004,Oldham,-2.0517,53.552,80,406152,242081,93140,1700.5,4.257135887,4.514549905,2.959706453,1.574884912,1.20602243,0.651955868,0.312679472,95.74286411,95.4854501,97.04029355,98.42511509,98.79397757,99.34804413,99.68732053,0.975847768,1.053848246,1.090418167,0.778789242,0.403287755,0.351053159,0.22334248
E08000005,Rochdale,-2.158,53.6164,1015,413331,223775,90223,1415.6,4.668069638,4.112854449,2.909976023,2.035530588,1.185459415,0.632687149,0.375008845,95.33193036,95.88714555,97.09002398,97.96446941,98.81454059,99.36731285,99.62499116,0.908743065,0.764934002,0.799244351,0.583664685,0.334764287,0.303689831,0.24764735
E08000006,Salford,-2.3706,53.4896,22990,399266,269927,115116,2777.2,10.91107474,9.001062699,6.977968928,4.650505336,2.434225754,1.212518434,0.392634714,89.08892526,90.9989373,93.02203107,95.34949466,97.56577425,98.78748157,99.60736529,1.379930041,0.967056323,0.877731941,0.689094636,0.385772703,0.382325632,0.203086921
E08000007,Stockport,-2.1281,53.3938,60,388561,294776,126648,2338.3,7.155650692,6.388936511,3.596819211,2.710141859,1.567572067,0.689441208,0.363074546,92.84434931,93.61106349,96.40318079,97.28985814,98.43242793,99.31055879,99.63692545,0.917391114,0.471455512,0.394965506,0.344060978,0.263574064,0.224068393,0.173812283
E08000008,Tameside,-2.0626,53.4778,1165,397900,231063,99527,2239.7,7.275795325,6.535005365,4.12808642,2.548220958,1.638366545,0.679475164,0.304045669,92.72420468,93.46499464,95.87191358,97.45177904,98.36163345,99.32052484,99.69595433,1.067050474,0.771190987,0.666386083,0.471269398,0.315745159,0.234301781,0.217175478
E08000009,Trafford,-2.3546,53.4194,19225,391465,235063,96269,2216.7,6.628151261,5.870992661,3.657386277,2.502720348,1.555352242,0.770377734,0.352714246,93.37184874,94.12900734,96.34261372,97.49727965,98.44464776,99.22962227,99.64728575,0.99789916,0.579374276,0.365130078,0.36804711,0.311070448,0.248508946,0.330669606
E08000010,Wigan,-2.5893,53.5244,30,403243,329329,143105,1750,6.157652635,5.456858885,3.077352411,1.949665643,1.101186835,0.464288944,0.209018773,93.84234737,94.54314111,96.92264759,98.05033436,98.89881317,99.53571106,99.79098123,0.766657374,0.480145964,0.431285993,0.304988252,0.269179004,0.195966113,0.251596671
E08000011,Knowsley,-2.8338,53.4258,1005,392430,154523,66073,1787,5.182818601,4.756955926,3.147901399,1.629701581,0.916168233,0.408163265,0.197199763,94.8171814,95.24304407,96.8520986,98.37029842,99.08383177,99.59183673,99.80280024,0.638977636,0.40153054,0.333111259,0.269818143,0.261084212,0.175932442,0.197199763
E08000012,Liverpool,-2.9168,53.3956,16850,389144,486093,207491,4346.1,10.0548683,7.548243057,4.610127913,2.929773296,1.638146721,0.86174314,0.390247272,89.9451317,92.45175694,95.38987209,97.0702267,98.36185328,99.13825686,99.60975273,1.108886937,1.052317231,0.788505344,0.725758704,0.447431379,0.277168846,0.259013676
E08000013,St. Helens,-2.7226,53.4595,30,396102,183245,81011,1343.6,6.634738186,5.783845882,3.679805489,1.959560659,1.399669169,0.53841375,0.171439456,93.36526181,94.21615412,96.32019451,98.04043934,98.60033083,99.46158625,99.82856054,0.862068966,0.419759632,0.444195072,0.249625562,0.275692412,0.284738041,0.25398438
E08000014,Sefton,-3.0154,53.566,1585,408176,279231,123073,1783.4,6.430018497,5.400256217,3.48040648,2.367779848,1.308354121,0.71596767,0.271852781,93.5699815,94.59974378,96.51959352,97.63222015,98.69164588,99.28403233,99.72814722,0.968906897,0.541996518,0.422064219,0.272323348,0.203634883,0.159103927,0.174264603
E08000015,Wirral,-3.0925,53.3683,28500,386273,320199,143252,1989.7,7.505493235,6.403162055,3.802761563,2.354223973,1.517141115,0.817967169,0.280594997,92.49450677,93.59683794,96.19723844,97.64577603,98.48285888,99.18203283,99.719405,1.079372422,0.536420102,0.336775932,0.309766312,0.246213009,0.196761862,0.236646383
E08000016,Barnsley,-1.5324,53.5359,465,404470,244576,108053,743.3,6.217791263,5.474042444,3.359908884,2.089110741,1.301477523,0.538570561,0.208507089,93.78220874,94.52595756,96.64009112,97.91088926,98.69852248,99.46142944,99.79149291,0.818764148,0.577904774,0.444903189,0.369754114,0.282929896,0.182223122,0.208507089
E08000017,Doncaster,-1.0953,53.5444,2835,405684,308108,133482,542.4,6.083607538,5.018865058,3.470679698,2.310902452,1.309508615,0.649499754,0.243560106,93.91639246,94.98113494,96.5293203,97.68909755,98.69049138,99.35050025,99.75643989,0.934789112,0.873616773,0.624722346,0.404277517,0.370134014,0.229621125,0.26832893
E08000018,Rotherham,-1.2862,53.409,33730,390471,265806,113925,927.7,5.769393452,4.96964866,3.149709207,1.765799257,1.044812175,0.423937318,0.220852121,94.23060655,95.03035134,96.85029079,98.23420074,98.95518782,99.57606268,99.77914788,1.163184164,0.889079649,0.588119976,0.363034387,0.301968837,0.246035051,0.184043434
E08000019,Sheffield,-1.5502,53.4042,480,389797,556519,231950,1512.5,9.957733654,7.469402692,4.3100696,2.527233115,1.7578125,0.977604759,0.402787388,90.04226635,92.53059731,95.6899304,97.47276688,98.2421875,99.02239524,99.59721261,1.426998818,1.274040742,0.997701296,0.59912854,0.442374466,0.229638702,0.234753385
E08000021,Newcastle upon Tyne,-1.6578,55.0078,2525,568195,300131,122797,2646.1,10.57497492,8.531068008,4.711782372,3.34164427,2.148595025,1.06802066,0.429704716,89.42502508,91.46893199,95.28821763,96.65835573,97.85140497,98.93197934,99.57029528,1.268760942,1.22731867,1.326646645,0.809506848,0.532309578,0.393942047,0.275451741
E08000022,North Tyneside,-1.5176,55.0281,32045,570503,208952,96232,2538.6,8.049230769,6.487029962,4.043829898,2.545441111,1.500036409,0.741656366,0.275640289,91.95076923,93.51297004,95.9561701,97.45455889,98.49996359,99.25834363,99.72435971,1.076923077,0.603257591,0.316797734,0.350967933,0.254860555,0.242804167,0.200987711
E08000023,South Tyneside,-1.4437,54.9635,275,563346,147777,68287,2294.2,7.012588767,6.064384493,3.629456458,1.805093527,1.013758146,0.427668278,0.168566383,92.98741123,93.93561551,96.37054354,98.19490647,98.98624185,99.57233172,99.83143362,1.0087153,0.453411925,0.438340152,0.218138191,0.313782283,0.278914094,0.240809119
E08000024,Sunderland,-1.4522,54.8805,2405,554109,274166,122177,1994.6,7.138014914,5.537118426,3.218911504,1.899354392,0.914165521,0.440069874,0.190484628,92.86198509,94.46288157,96.7810885,98.10064561,99.08583448,99.55993013,99.80951537,0.996929457,0.612909977,0.398774963,0.302628545,0.337081682,0.251948401,0.221493754
E08000025,Birmingham,-1.8744,52.4885,31255,287849,1144916,423456,4275.4,6.021230372,5.026481005,3.303249995,2.384173015,1.583455587,1.038610411,0.442428045,93.97876963,94.97351899,96.69675001,97.61582699,98.41654441,98.96138959,99.55757195,1.134394852,1.289680591,1.331383005,0.870136137,0.615209881,0.447676901,0.402207314
E08000026,Coventry,-1.5202,52.4174,350,280037,345328,134139,3500.7,7.648622005,5.167285438,3.270077138,2.037512847,1.189010659,0.784922767,0.271599157,92.35137799,94.83271456,96.72992286,97.96248715,98.81098934,99.21507723,99.72840084,1.221550727,1.150698018,1.123941129,0.899280576,0.375319021,0.293821357,0.304378366
E08000027,Dudley,-2.1081,52.4831,2050,287253,323495,137069,3302.4,5.053126205,4.685309337,3.065776312,1.877319363,1.091640333,0.494112362,0.195913798,94.94687379,95.31469066,96.93422369,98.12268064,98.90835967,99.50588764,99.8040862,0.911736859,0.548063932,0.459596096,0.363821582,0.287273772,0.256681747,0.297369158
E08000028,Sandwell,-2.0085,52.5158,27425,290879,341835,130246,3994.9,3.965077155,4.411461081,3.014410799,2.000805058,1.232214001,0.635012866,0.281509285,96.03492284,95.58853892,96.9855892,97.99919494,98.767786,99.36498713,99.71849072,0.826662026,1.101144732,1.128693907,0.757701324,0.583380763,0.435793144,0.370406954
E08000029,Solihull,-1.7278,52.4128,105,279457,216236,89483,1212.9,5.134208091,4.356679252,2.370049008,1.431587989,0.738678545,0.445434298,0.175858532,94.86579191,95.64332075,97.62995099,98.56841201,99.26132146,99.5545657,99.82414147,0.707791147,0.403003436,0.361532899,0.250527898,0.259836674,0.185597624,0.244247961
E08000030,Walsall,-1.9665,52.5992,1955,300150,284130,112226,2733.1,4.714876184,4.126857371,2.632045374,1.94214394,1.08189669,0.620108626,0.246691019,95.28512382,95.87314263,97.36795463,98.05785606,98.91810331,99.37989137,99.75330898,0.713266762,0.613181987,0.649887747,0.65612971,0.369193233,0.277979729,0.260923194
E08000031,Wolverhampton,-2.1206,52.589,20700,299026,263730,105141,3797.9,5.231523587,4.671550378,3.117520526,2.122056527,1.25301718,0.689722168,0.343376163,94.76847641,95.32844962,96.88247947,97.87794347,98.74698282,99.31027783,99.65662384,1.146743643,1.260958328,1.120974339,0.857396577,0.603436036,0.437147853,0.276916261
E08000032,Bradford,-1.8548,53.8448,65,438737,546409,209867,1491.2,4.803045056,4.332980813,2.674065853,2.202362968,1.462211417,0.788473272,0.411636408,95.19695494,95.66701919,97.32593415,97.79763703,98.53778858,99.21152673,99.58836359,1.009117465,1.34461399,0.887902331,0.747372271,0.443632105,0.351996996,0.276472215
E08000033,Calderdale,-1.9738,53.7212,1670,424977,206627,90476,567.8,6.407413724,5.848254541,3.873780361,3.300175962,2.507335289,1.262340979,0.508356103,93.59258628,94.15174546,96.12621964,96.69982404,97.49266471,98.73765902,99.4916439,1.080220592,0.815835802,0.62279427,0.395015621,0.285790497,0.147354978,0.190633539
E08000034,Kirklees,-1.7633,53.6274,18110,414567,433222,177989,1060.3,6.189518957,4.95271426,3.250106784,2.081447964,1.30000805,0.735685837,0.341637928,93.81048104,95.04728574,96.74989322,97.91855204,98.69999195,99.26431416,99.65836207,0.911598336,0.747134347,0.59216402,0.43438914,0.301859454,0.279053248,0.177264963
E08000035,Leeds,-1.5059,53.8256,35,436701,811950,341466,1471.7,10.35013731,7.394561966,4.192587788,2.716600266,1.734298299,0.930055391,0.337555943,89.64986269,92.60543803,95.80741221,97.28339973,98.2657017,99.06994461,99.66244406,1.333856414,1.085488867,0.889426148,0.642762284,0.396068124,0.301553796,0.237047713
E08000036,Wakefield,-1.4115,53.6607,2205,418409,353375,153075,1043.6,6.905974832,5.512712505,3.597584173,2.2032191,1.327292596,0.580821281,0.203114421,93.09402517,94.48728749,96.40241583,97.7967809,98.6727074,99.41917872,99.79688558,0.995243075,0.604843065,0.558778771,0.289333248,0.295965759,0.21780798,0.206875799
E08000037,Gateshead,-1.6837,54.9354,52540,560133,196144,88999,1378,7.422729153,7.285307285,4.831649832,2.804941849,1.694053208,0.681582457,0.200365372,92.57727085,92.71469271,95.16835017,97.19505815,98.30594679,99.31841754,99.79963463,1.034217836,0.773300773,0.505050505,0.382309147,0.29342723,0.222255149,0.206258471
E09000001,City of London,-0.0914,51.5139,650,181164,8579,4914,2975,8.695652174,10.47904192,15.06129597,16.5575304,13.06818182,6.709265176,4.337899543,91.30434783,89.52095808,84.93870403,83.4424696,86.93181818,93.29073482,95.66210046,0,0,0,0,0,0,0
E09000002,Barking and Dagenham,0.1337,51.5438,6430,184924,218863,73902,6065.8,3.456616386,3.934065201,2.619452606,1.761579347,1.51613955,1.074828539,0.444983819,96.54338361,96.0659348,97.38054739,98.23842065,98.48386045,98.92517146,99.55501618,1.165398654,1.484867697,1.639090769,1.404707669,0.978154548,0.71655236,0.404530744
E09000003,Barnet,-0.2091,51.616,49220,192314,389340,148917,4488.7,5.984197072,5.047782875,3.132644492,2.125376584,1.781976136,1.348940914,0.608277681,94.01580293,94.95221713,96.86735551,97.87462342,98.21802386,98.65105909,99.39172232,1.220079015,1.127675841,1.067946986,0.856341051,0.745760938,0.557413601,0.404100557
E09000004,Bexley,0.1428,51.4609,710,175730,246473,95300,4070.7,5.263157895,3.806612015,2.45615111,1.714140062,1.177221474,0.492886179,0.235426009,94.73684211,96.19338799,97.54384889,98.28585994,98.82277853,99.50711382,99.76457399,0.902884827,0.671952695,0.720593647,0.58943478,0.407772498,0.355691057,0.280269058
E09000005,Brent,-0.2676,51.5594,4860,185924,339818,118612,7859.6,5.232799978,5.254276291,3.931725543,3.034960599,2.111294491,1.541024573,0.717313336,94.76720002,94.74572371,96.06827446,96.9650394,97.88870551,98.45897543,99.28268666,1.566789607,1.582035744,1.921280571,1.500402547,1.183321396,1.145356102,0.652103032
E09000006,Bromley,0.0511,51.3721,46500,165667,329989,135827,2197.7,5.736182989,5.381331366,3.186568443,2.849769999,1.633753668,0.933666269,0.411346967,94.26381701,94.61866863,96.81343156,97.15023,98.36624633,99.06633373,99.58865303,1.046892901,0.461181679,0.503255097,0.370245709,0.251143363,0.253320305,0.213434747
E09000007,Camden,-0.1565,51.5456,645,184580,210134,92759,9640.9,11.66732503,9.134865343,7.020811692,7.005706194,6.691172553,3.735421254,2.332596018,88.33267497,90.86513466,92.97918831,92.99429381,93.30882745,96.26457875,97.66740398,1.07731533,0.896849329,0.949242397,1.020450664,0.745831336,0.61169562,0.502714659
E09000008,Croydon,-0.087,51.3554,4790,163557,390718,152946,4516,4.86199756,5.566845019,3.908979495,3.01821621,1.86364933,1.20764717,0.5801441,95.13800244,94.43315498,96.09102051,96.98178379,98.13635067,98.79235283,99.4198559,1.233937537,1.193161692,1.143243886,1.05884288,0.736902158,0.511073254,0.467858145
E09000009,Ealing,-0.3303,51.5223,40290,181701,367122,133659,6611.6,5.753293817,5.796586724,3.754737113,2.833693305,2.153364282,1.757145425,1.120892019,94.24670618,94.20341328,96.24526289,97.1663067,97.84663572,98.24285457,98.87910798,1.207966964,1.317830906,1.444129659,1.069114471,0.894904637,0.741506381,0.616197183
E09000010,Enfield,-0.0874,51.6511,430,196432,329986,120923,4082.5,3.69352774,3.832314235,2.882205514,1.998498098,1.537182024,0.948216341,0.436402342,96.30647226,96.16768577,97.11779449,98.0015019,98.46281798,99.05178366,99.56359766,1.217646508,1.597846053,1.515151515,1.405004724,0.846023689,0.621403913,0.47897818
E09000011,Greenwich,0.0555,51.4743,3710,177046,289067,114052,6108.6,6.913978495,6.78866343,5.555182825,4.299564423,2.854756662,1.515439731,0.881818968,93.08602151,93.21133657,94.44481718,95.70043558,97.14524334,98.48456027,99.11818103,1.290322581,0.923274825,0.99519177,1.152170859,0.797205983,0.697482721,0.38903778
E09000012,Hackney,-0.0637,51.5522,33210,185478,259148,106081,13593.3,9.245290796,12.93958682,9.241224315,7.068062827,5.09649165,3.454629203,1.318295005,90.7547092,87.06041318,90.75877568,92.93193717,94.90350835,96.5453708,98.68170499,1.504472198,1.200085339,1.123715753,1.308900524,1.251263295,1.0133579,0.878863337
E09000013,Hammersmith and Fulham,-0.222,51.4956,265,178905,183161,81244,11161.1,8.6894041,6.910589922,5.495029821,4.903573714,4.683247896,3.370435868,2.571902655,91.3105959,93.08941008,94.50497018,95.09642629,95.3167521,96.62956413,97.42809735,0.93408699,0.678512905,0.854870775,0.959692898,0.854376305,0.67616769,0.553097345
E09000014,Haringey,-0.1071,51.5901,3270,189614,264234,105092,8930.2,8.690436797,9.939711782,6.354708261,4.598145286,4.075222646,2.827174215,1.184562476,91.3095632,90.06028822,93.64529174,95.40185471,95.92477735,97.17282578,98.81543752,1.902713435,1.792958157,1.481928013,1.3078112,0.914440204,0.764101139,0.573175392
E09000015,Harrow,-0.3424,51.5982,22465,190121,261203,89642,5175.4,3.778660177,3.561978425,2.775598539,1.651601755,1.129449346,1.157613535,0.52754631,96.22133982,96.43802158,97.22440146,98.34839825,98.87055065,98.84238646,99.47245369,1.174159942,1.497484807,1.163262546,0.996942709,0.665500456,0.628568435,0.449613333
E09000016,Havering,0.2208,51.5631,145,187245,262057,101277,2332.3,4.355415531,3.900646156,2.481077764,1.59357511,0.937897769,0.369036904,0.195449534,95.64458447,96.09935384,97.51892224,98.40642489,99.06210223,99.6309631,99.80455047,0.808923706,0.622443535,0.73058827,0.584943245,0.418704361,0.270027003,0.225518693
E09000017,Hillingdon,-0.4455,51.5409,2655,183585,305916,109228,2644,4.649569303,3.689243619,2.659058617,1.83083021,1.190671973,0.870038064,0.365175052,95.3504307,96.31075638,97.34094138,98.16916979,98.80932803,99.12996194,99.63482495,1.190942313,1.260223875,1.240442951,0.903281473,0.608492583,0.5190568,0.376767911
E09000018,Hounslow,-0.366,51.4686,15915,175668,288181,102961,5148,4.118653736,4.80773905,3.719181868,3.044064624,2.22230453,1.753283838,1.076705439,95.88134626,95.19226095,96.28081813,96.95593538,97.77769547,98.24671616,98.92329456,0.969766115,1.482669778,1.260364842,1.293589849,0.833364199,0.685322673,0.628733103
E09000019,Islington,-0.11,51.5487,70,185005,216587,96496,14574.9,11.61030198,10.07867236,8.806135049,8.943266426,7.28738455,4.350704625,2.025214592,88.38969802,89.92132764,91.19386495,91.05673357,92.71261545,95.64929538,97.97478541,1.295976302,1.037222592,1.08858127,1.219140506,0.854198922,0.709354015,0.737660944
E09000020,Kensington and Chelsea,-0.1919,51.5006,2255,179504,143376,66884,11816.5,5.785231409,5.72334912,5.140522334,4.873335074,4.746407958,3.23640709,2.519474197,94.21476859,94.27665088,94.85947767,95.12666493,95.25359204,96.76359291,97.4805258,0.617524701,0.536145117,0.579758158,0.861843823,0.706127963,0.497908783,0.425998053
E09000021,Kingston upon Thames,-0.2865,51.3869,3750,166705,168064,65626,4512.1,9.092574499,6.180510137,3.31674282,2.225171422,1.572808671,1.467694326,0.698663426,90.9074255,93.81948986,96.68325718,97.77482858,98.42719133,98.53230567,99.30133657,1.465559355,0.957675418,0.673139687,0.508737005,0.441800189,0.409970482,0.354394492
E09000022,Lambeth,-0.1188,51.4543,20,174499,317662,134688,11839.1,9.394367415,10.36558799,10.72427449,9.530360659,7.205061671,3.96909027,1.742963037,90.60563258,89.63441201,89.27572551,90.46963934,92.79493833,96.03090973,98.25703696,1.167449771,0.844984883,1.129930862,1.17342397,1.261863292,0.842992624,0.550936592
E09000023,Lewisham,-0.0201,51.4487,245,174051,300554,122392,8551.5,10.03667526,10.18569037,6.857081499,5.464495679,3.657697337,2.212542349,0.937528171,89.96332474,89.81430963,93.1429185,94.53550432,96.34230266,97.78745765,99.06247183,1.68851447,1.30754614,1.063030173,1.137872179,0.843025256,0.691419484,0.495808167
E09000024,Merton,-0.1957,51.4103,4070,169458,215188,81729,5721.6,6.387410322,5.733365419,3.557347405,2.683467083,2.435033686,1.636082246,1.046435579,93.61258968,94.26663458,96.4426526,97.31653292,97.56496631,98.36391775,98.95356442,1.070354085,0.782096017,0.770758604,0.762554922,0.649663138,0.405335692,0.420442866
E09000025,Newham,0.0379,51.5269,20,182855,351039,115507,9690.1,4.428644228,6.51649112,5.007203937,3.550265368,2.55143087,1.658593865,0.969595403,95.57135577,93.48350888,94.99279606,96.44973463,97.44856913,98.34140614,99.0304046,1.395326264,1.629891597,2.245382931,1.855000773,1.417461594,1.174225745,0.95762509
E09000026,Redbridge,0.0759,51.5851,225,189405,310260,103713,5501.9,3.21080026,3.694663795,2.783149021,2.166279509,1.453255919,1.438240271,0.616474292,96.78919974,96.3053362,97.21685098,97.83372049,98.54674408,98.56175973,99.38352571,0.927130774,1.459679349,1.683794295,1.066933175,0.660570872,0.581641286,0.491867786
E09000027,Richmond upon Thames,-0.3126,51.4426,4380,172867,195278,80705,3401.9,7.731777606,6.129554259,3.509690938,2.888147474,2.499324507,1.790799215,1.440281928,92.26822239,93.87044574,96.49030906,97.11185253,97.50067549,98.20920078,98.55971807,0.878611092,0.514882558,0.471451021,0.320156371,0.292713681,0.316395621,0.268137593
E09000028,Southwark,-0.0745,51.4738,10,176738,307641,130818,10659,10.97288676,10.74088475,9.779713809,8.58408559,6.249776154,3.274115402,1.333333333,89.02711324,89.25911525,90.22028619,91.41591441,93.75022385,96.7258846,98.66666667,1.565898217,1.031914575,1.546065996,1.964226011,1.307259769,0.770811922,0.740740741
E09000029,Sutton,-0.1777,51.362,165,164120,209640,82348,4781,5.157373571,4.724816213,2.699085434,2.131083062,1.314391928,0.6656,0.466797169,94.84262643,95.27518379,97.30091457,97.86891694,98.68560807,99.3344,99.53320283,0.795709065,0.61593483,0.541729072,0.518468195,0.531067446,0.352,0.225869598
E09000030,Tower Hamlets,-0.0342,51.516,5230,181509,310303,120539,15702.9,8.398334689,9.382792615,8.255481411,7.221113795,5.579937304,3.320954907,1.645367412,91.60166531,90.61720739,91.74451859,92.77888621,94.4200627,96.67904509,98.35463259,1.076709576,1.020711397,1.525262154,1.417620498,0.968937019,0.74270557,0.638977636
E09000031,Waltham Forest,-0.0131,51.5938,300,190195,278429,102901,7173.3,5.092007018,7.596738708,5.547509326,4.66555233,3.14432784,1.988263721,0.753928604,94.90799298,92.40326129,94.45249067,95.33444767,96.85567216,98.01173628,99.2460714,1.224040149,1.477503128,1.261795041,1.304947069,1.057419895,0.724887815,0.363339086
E09000032,Wandsworth,-0.1872,51.4523,185,174145,327506,137393,9560,8.613877551,6.659958259,5.321075078,4.782082324,4.540343531,2.78277635,1.65343374,91.38612245,93.34004174,94.67892492,95.21791768,95.45965647,97.21722365,98.34656626,1.028571429,0.546611012,0.663877042,0.70162888,0.697917878,0.674807198,0.613898666
E09000033,Westminster,-0.1605,51.5135,5355,181005,204240,94815,9514.2,7.448259265,7.163082574,6.661473981,5.831972274,5.566376217,3.810709838,2.594627595,92.55174073,92.83691743,93.33852602,94.16802773,94.43362378,96.18929016,97.40537241,0.922509225,0.739777047,1.001446534,0.956061029,0.871348027,0.788709008,0.763125763
W06000001,Isle of Anglesey,-4.3747,53.2862,5403,379205,68875,30822,96.7,6.368821293,4.305786373,2.84843869,1.996909545,1.25,0.608313619,0.25874983,93.63117871,95.69421363,97.15156131,98.00309046,98.75,99.39168638,99.74125017,0.855513308,0.377700559,0.228484387,0.297159158,0.210084034,0.168976005,0.204276181
W06000002,Gwynedd,-4.0249,52.895,245,334963,117397,51105,46.3,11.66432913,5.390198157,3.192825112,2.27158001,1.630470658,0.93889367,0.334479234,88.33567087,94.60980184,96.80717489,97.72841999,98.36952934,99.06110633,99.66552077,1.324606514,0.611595857,0.313901345,0.252397779,0.165027395,0.195602848,0.139366348
W06000003,Conwy,-3.7358,53.1408,5090,361802,114741,52235,101.9,6.711647727,5.598911071,3.76057374,2.427114749,1.617665149,0.993955675,0.486111111,93.28835227,94.40108893,96.23942626,97.57288525,98.38233485,99.00604433,99.51388889,0.828598485,0.408348457,0.367782273,0.179520322,0.215278632,0.134318334,0.154320988
W06000004,Denbighshire,-3.3544,53.0917,4453,355776,95816,42387,114.5,6.012820513,5.357699097,3.251507321,2.204459403,1.29427265,0.808555034,0.416577654,93.98717949,94.6423009,96.74849268,97.7955406,98.70572735,99.19144497,99.58342235,0.833333333,0.4672412,0.269164513,0.252419016,0.155002713,0.217353504,0.213629566
W06000005,Flintshire,-3.1636,53.2183,235,369649,154965,66911,352.3,6.052053935,4.821600771,2.836388793,1.891996516,1.173557811,0.524871764,0.162350213,93.94794606,95.17839923,97.16361121,98.10800348,98.82644219,99.47512824,99.83764979,0.705550329,0.482160077,0.345901072,0.266137617,0.198068829,0.178933556,0.115964438
